<?xml version="1.0" encoding="utf-8" standalone="yes"?>
<kml xmlns="http://earth.google.com/kml/2.0" creator="http://www.poigps.lt">
 <Folder>
    <Placemark>
      <name>Cemento glos tv. (Ež.)</name>
      <description></description>
      <Point>
        <coordinates>22.90195,56.26994,0</coordinates>
      </Point>
    </Placemark>
    <Placemark>
      <name>Kadagiu tv. (Ež.)</name>
      <description></description>
      <Point>
        <coordinates>22.71675,56.23672,0</coordinates>
      </Point>
    </Placemark>
    <Placemark>
      <name>Kamanu ez. (Ež.)</name>
      <description></description>
      <Point>
        <coordinates>22.63733,56.30804,0</coordinates>
      </Point>
    </Placemark>
    <Placemark>
      <name>Kivyliu tv. (Ež.)</name>
      <description></description>
      <Point>
        <coordinates>22.70916,56.34432,0</coordinates>
      </Point>
    </Placemark>
    <Placemark>
      <name>Klykoliu tv. (Ež.)</name>
      <description></description>
      <Point>
        <coordinates>22.78559,56.36691,0</coordinates>
      </Point>
    </Placemark>
    <Placemark>
      <name>Sablausku tv. (Ež.)</name>
      <description></description>
      <Point>
        <coordinates>22.86858,56.25887,0</coordinates>
      </Point>
    </Placemark>
    <Placemark>
      <name>Aloves ez. (Ež.)</name>
      <description></description>
      <Point>
        <coordinates>24.17802,54.33773,0</coordinates>
      </Point>
    </Placemark>
    <Placemark>
      <name>Angininku ez. (Ež.)</name>
      <description></description>
      <Point>
        <coordinates>23.71502,54.39712,0</coordinates>
      </Point>
    </Placemark>
    <Placemark>
      <name>Apsingis (Ež.)</name>
      <description></description>
      <Point>
        <coordinates>24.09022,54.23160,0</coordinates>
      </Point>
    </Placemark>
    <Placemark>
      <name>Atesys (Ež.)</name>
      <description></description>
      <Point>
        <coordinates>23.71876,54.37511,0</coordinates>
      </Point>
    </Placemark>
    <Placemark>
      <name>Aukrakstis (Ež.)</name>
      <description></description>
      <Point>
        <coordinates>24.30514,54.34932,0</coordinates>
      </Point>
    </Placemark>
    <Placemark>
      <name>Bedugnis (Ež.)</name>
      <description></description>
      <Point>
        <coordinates>23.98347,54.18630,0</coordinates>
      </Point>
    </Placemark>
    <Placemark>
      <name>Didziulis (Daugu ez.) (Ež.)</name>
      <description></description>
      <Point>
        <coordinates>24.39312,54.35188,0</coordinates>
      </Point>
    </Placemark>
    <Placemark>
      <name>Didziulis (Daugu ez.) (Ež.)</name>
      <description></description>
      <Point>
        <coordinates>24.35465,54.33868,0</coordinates>
      </Point>
    </Placemark>
    <Placemark>
      <name>Dilukas (Ež.)</name>
      <description></description>
      <Point>
        <coordinates>24.35371,54.32158,0</coordinates>
      </Point>
    </Placemark>
    <Placemark>
      <name>Dusmeniu tv. (Ež.)</name>
      <description></description>
      <Point>
        <coordinates>24.43385,54.42453,0</coordinates>
      </Point>
    </Placemark>
    <Placemark>
      <name>Gailintas (Ež.)</name>
      <description></description>
      <Point>
        <coordinates>24.08703,54.26811,0</coordinates>
      </Point>
    </Placemark>
    <Placemark>
      <name>Gailintenu ez. (Ež.)</name>
      <description></description>
      <Point>
        <coordinates>24.07589,54.28086,0</coordinates>
      </Point>
    </Placemark>
    <Placemark>
      <name>Galvinis (Ež.)</name>
      <description></description>
      <Point>
        <coordinates>23.99584,54.18682,0</coordinates>
      </Point>
    </Placemark>
    <Placemark>
      <name>Gilis (Ež.)</name>
      <description></description>
      <Point>
        <coordinates>24.28839,54.38255,0</coordinates>
      </Point>
    </Placemark>
    <Placemark>
      <name>Giluitis (Ež.)</name>
      <description></description>
      <Point>
        <coordinates>23.62228,54.38182,0</coordinates>
      </Point>
    </Placemark>
    <Placemark>
      <name>Gilusis (Ež.)</name>
      <description></description>
      <Point>
        <coordinates>24.32831,54.36729,0</coordinates>
      </Point>
    </Placemark>
    <Placemark>
      <name>Gudeliu ez. (Ež.)</name>
      <description></description>
      <Point>
        <coordinates>23.86634,54.40666,0</coordinates>
      </Point>
    </Placemark>
    <Placemark>
      <name>Ilgis (Ež.)</name>
      <description></description>
      <Point>
        <coordinates>24.39000,54.46391,0</coordinates>
      </Point>
    </Placemark>
    <Placemark>
      <name>Juodis (Ež.)</name>
      <description></description>
      <Point>
        <coordinates>24.03396,54.24193,0</coordinates>
      </Point>
    </Placemark>
    <Placemark>
      <name>Kalesninku tv. (Ež.)</name>
      <description></description>
      <Point>
        <coordinates>23.65490,54.37138,0</coordinates>
      </Point>
    </Placemark>
    <Placemark>
      <name>Kalesninku tv. (Ež.)</name>
      <description></description>
      <Point>
        <coordinates>23.65199,54.36829,0</coordinates>
      </Point>
    </Placemark>
    <Placemark>
      <name>Kalesninku tv. (Ež.)</name>
      <description></description>
      <Point>
        <coordinates>23.65693,54.36455,0</coordinates>
      </Point>
    </Placemark>
    <Placemark>
      <name>Kalesninku tv. (Ež.)</name>
      <description></description>
      <Point>
        <coordinates>23.65455,54.36237,0</coordinates>
      </Point>
    </Placemark>
    <Placemark>
      <name>Kalesninku tv. (Ež.)</name>
      <description></description>
      <Point>
        <coordinates>23.65728,54.36845,0</coordinates>
      </Point>
    </Placemark>
    <Placemark>
      <name>Kalesninku tv. (Ež.)</name>
      <description></description>
      <Point>
        <coordinates>23.65048,54.36401,0</coordinates>
      </Point>
    </Placemark>
    <Placemark>
      <name>Kavalys (Ež.)</name>
      <description></description>
      <Point>
        <coordinates>23.92526,54.42681,0</coordinates>
      </Point>
    </Placemark>
    <Placemark>
      <name>Kazamkas (Ež.)</name>
      <description></description>
      <Point>
        <coordinates>24.10098,54.21851,0</coordinates>
      </Point>
    </Placemark>
    <Placemark>
      <name>Krokialaukio tv. (Ež.)</name>
      <description></description>
      <Point>
        <coordinates>23.74479,54.43809,0</coordinates>
      </Point>
    </Placemark>
    <Placemark>
      <name>Lizdu ez. (Ež.)</name>
      <description></description>
      <Point>
        <coordinates>23.98520,54.20264,0</coordinates>
      </Point>
    </Placemark>
    <Placemark>
      <name>Luksnenu ez. (Ež.)</name>
      <description></description>
      <Point>
        <coordinates>23.91948,54.38887,0</coordinates>
      </Point>
    </Placemark>
    <Placemark>
      <name>Mainia (Ež.)</name>
      <description></description>
      <Point>
        <coordinates>24.29847,54.37742,0</coordinates>
      </Point>
    </Placemark>
    <Placemark>
      <name>Naudorius (Ež.)</name>
      <description></description>
      <Point>
        <coordinates>23.90679,54.41769,0</coordinates>
      </Point>
    </Placemark>
    <Placemark>
      <name>Neveiglas (Ež.)</name>
      <description></description>
      <Point>
        <coordinates>24.32189,54.38334,0</coordinates>
      </Point>
    </Placemark>
    <Placemark>
      <name>Niedulis (Ež.)</name>
      <description></description>
      <Point>
        <coordinates>24.36671,54.39278,0</coordinates>
      </Point>
    </Placemark>
    <Placemark>
      <name>Norunu ez. (Ež.)</name>
      <description></description>
      <Point>
        <coordinates>24.01052,54.33436,0</coordinates>
      </Point>
    </Placemark>
    <Placemark>
      <name>Nosas (Ež.)</name>
      <description></description>
      <Point>
        <coordinates>24.30736,54.40049,0</coordinates>
      </Point>
    </Placemark>
    <Placemark>
      <name>Obelija (Ež.)</name>
      <description></description>
      <Point>
        <coordinates>23.83087,54.29776,0</coordinates>
      </Point>
    </Placemark>
    <Placemark>
      <name>Pluvija (Aniskio ez.) (Ež.)</name>
      <description></description>
      <Point>
        <coordinates>23.89795,54.41226,0</coordinates>
      </Point>
    </Placemark>
    <Placemark>
      <name>Punios tv. (Ež.)</name>
      <description></description>
      <Point>
        <coordinates>24.12799,54.51101,0</coordinates>
      </Point>
    </Placemark>
    <Placemark>
      <name>Radziunu ez. (Ež.)</name>
      <description></description>
      <Point>
        <coordinates>24.01421,54.35140,0</coordinates>
      </Point>
    </Placemark>
    <Placemark>
      <name>Ruzis (Ež.)</name>
      <description></description>
      <Point>
        <coordinates>24.01117,54.24508,0</coordinates>
      </Point>
    </Placemark>
    <Placemark>
      <name>Sausvingis (Ež.)</name>
      <description></description>
      <Point>
        <coordinates>24.19694,54.29589,0</coordinates>
      </Point>
    </Placemark>
    <Placemark>
      <name>Simno ez. (Ež.)</name>
      <description></description>
      <Point>
        <coordinates>23.63874,54.39770,0</coordinates>
      </Point>
    </Placemark>
    <Placemark>
      <name>Skabeikiu tv. (Ež.)</name>
      <description></description>
      <Point>
        <coordinates>24.44653,54.39493,0</coordinates>
      </Point>
    </Placemark>
    <Placemark>
      <name>Skabeikiu tv. (Ež.)</name>
      <description></description>
      <Point>
        <coordinates>24.43577,54.40420,0</coordinates>
      </Point>
    </Placemark>
    <Placemark>
      <name>Strauzdis (Ež.)</name>
      <description></description>
      <Point>
        <coordinates>23.90645,54.43362,0</coordinates>
      </Point>
    </Placemark>
    <Placemark>
      <name>Suvingis (Ež.)</name>
      <description></description>
      <Point>
        <coordinates>24.31850,54.33543,0</coordinates>
      </Point>
    </Placemark>
    <Placemark>
      <name>Svetus (Ež.)</name>
      <description></description>
      <Point>
        <coordinates>24.39156,54.38366,0</coordinates>
      </Point>
    </Placemark>
    <Placemark>
      <name>Tolkunu ez. (Ež.)</name>
      <description></description>
      <Point>
        <coordinates>23.96357,54.31448,0</coordinates>
      </Point>
    </Placemark>
    <Placemark>
      <name>Tolokiu ez. (Ež.)</name>
      <description></description>
      <Point>
        <coordinates>23.96298,54.34860,0</coordinates>
      </Point>
    </Placemark>
    <Placemark>
      <name>Tverkta (Ež.)</name>
      <description></description>
      <Point>
        <coordinates>24.10579,54.31460,0</coordinates>
      </Point>
    </Placemark>
    <Placemark>
      <name>Udrijos ez. (Ež.)</name>
      <description></description>
      <Point>
        <coordinates>23.84949,54.43573,0</coordinates>
      </Point>
    </Placemark>
    <Placemark>
      <name>Vabaliu ez. (Ež.)</name>
      <description></description>
      <Point>
        <coordinates>24.11700,54.28421,0</coordinates>
      </Point>
    </Placemark>
    <Placemark>
      <name>Zuvintas (Ež.)</name>
      <description></description>
      <Point>
        <coordinates>23.63648,54.46961,0</coordinates>
      </Point>
    </Placemark>
    <Placemark>
      <name>Alytaus tv. (Ež.)</name>
      <description></description>
      <Point>
        <coordinates>24.05542,54.43642,0</coordinates>
      </Point>
    </Placemark>
    <Placemark>
      <name>Alytaus tv. (Ež.)</name>
      <description></description>
      <Point>
        <coordinates>24.06142,54.43443,0</coordinates>
      </Point>
    </Placemark>
    <Placemark>
      <name>Alytaus tv. (Ež.)</name>
      <description></description>
      <Point>
        <coordinates>24.06029,54.43709,0</coordinates>
      </Point>
    </Placemark>
    <Placemark>
      <name>Dailides ez. (Ež.)</name>
      <description></description>
      <Point>
        <coordinates>24.06329,54.39176,0</coordinates>
      </Point>
    </Placemark>
    <Placemark>
      <name>Dailides ez. (Ež.)</name>
      <description></description>
      <Point>
        <coordinates>24.07356,54.38707,0</coordinates>
      </Point>
    </Placemark>
    <Placemark>
      <name>Alausas (Ež.)</name>
      <description></description>
      <Point>
        <coordinates>25.36910,55.67543,0</coordinates>
      </Point>
    </Placemark>
    <Placemark>
      <name>Budragaidis (Ež.)</name>
      <description></description>
      <Point>
        <coordinates>25.03180,55.46326,0</coordinates>
      </Point>
    </Placemark>
    <Placemark>
      <name>Budriu ez. (Ež.)</name>
      <description></description>
      <Point>
        <coordinates>24.85853,55.45061,0</coordinates>
      </Point>
    </Placemark>
    <Placemark>
      <name>Dabuziu tv. (Ež.)</name>
      <description></description>
      <Point>
        <coordinates>24.94504,55.49368,0</coordinates>
      </Point>
    </Placemark>
    <Placemark>
      <name>Denioniu ez. (Ež.)</name>
      <description></description>
      <Point>
        <coordinates>25.26457,55.66460,0</coordinates>
      </Point>
    </Placemark>
    <Placemark>
      <name>Dusynas (Ež.)</name>
      <description></description>
      <Point>
        <coordinates>25.27523,55.48695,0</coordinates>
      </Point>
    </Placemark>
    <Placemark>
      <name>Elmininku tv. (Ež.)</name>
      <description></description>
      <Point>
        <coordinates>25.19882,55.55310,0</coordinates>
      </Point>
    </Placemark>
    <Placemark>
      <name>Elmis (Ež.)</name>
      <description></description>
      <Point>
        <coordinates>25.25652,55.53447,0</coordinates>
      </Point>
    </Placemark>
    <Placemark>
      <name>Eseris (Ež.)</name>
      <description></description>
      <Point>
        <coordinates>25.04000,55.42736,0</coordinates>
      </Point>
    </Placemark>
    <Placemark>
      <name>Ilgis (Ež.)</name>
      <description></description>
      <Point>
        <coordinates>25.04419,55.49966,0</coordinates>
      </Point>
    </Placemark>
    <Placemark>
      <name>Juostinas (Ež.)</name>
      <description></description>
      <Point>
        <coordinates>24.94830,55.56977,0</coordinates>
      </Point>
    </Placemark>
    <Placemark>
      <name>Jutkoniu tv. (Ež.)</name>
      <description></description>
      <Point>
        <coordinates>25.31119,55.71350,0</coordinates>
      </Point>
    </Placemark>
    <Placemark>
      <name>Karaliskiu ez. (Ež.)</name>
      <description></description>
      <Point>
        <coordinates>25.08933,55.31725,0</coordinates>
      </Point>
    </Placemark>
    <Placemark>
      <name>Kavarsko tv. (Ež.)</name>
      <description></description>
      <Point>
        <coordinates>24.95024,55.43903,0</coordinates>
      </Point>
    </Placemark>
    <Placemark>
      <name>Kuojinis (Ež.)</name>
      <description></description>
      <Point>
        <coordinates>25.26212,55.67916,0</coordinates>
      </Point>
    </Placemark>
    <Placemark>
      <name>Kurklys (Ež.)</name>
      <description></description>
      <Point>
        <coordinates>25.09816,55.39468,0</coordinates>
      </Point>
    </Placemark>
    <Placemark>
      <name>Laviskio ez. (Ež.)</name>
      <description></description>
      <Point>
        <coordinates>24.81663,55.39459,0</coordinates>
      </Point>
    </Placemark>
    <Placemark>
      <name>Lipsys (Ež.)</name>
      <description></description>
      <Point>
        <coordinates>25.37989,55.55136,0</coordinates>
      </Point>
    </Placemark>
    <Placemark>
      <name>Meiluskiu ez. (Ež.)</name>
      <description></description>
      <Point>
        <coordinates>24.85710,55.64388,0</coordinates>
      </Point>
    </Placemark>
    <Placemark>
      <name>Musejus (Ež.)</name>
      <description></description>
      <Point>
        <coordinates>25.30074,55.47631,0</coordinates>
      </Point>
    </Placemark>
    <Placemark>
      <name>Naujasodzio tv. (Ež.)</name>
      <description></description>
      <Point>
        <coordinates>24.91270,55.44312,0</coordinates>
      </Point>
    </Placemark>
    <Placemark>
      <name>Neveza (Ež.)</name>
      <description></description>
      <Point>
        <coordinates>25.17073,55.45019,0</coordinates>
      </Point>
    </Placemark>
    <Placemark>
      <name>Pienioniu tv. (Ež.)</name>
      <description></description>
      <Point>
        <coordinates>24.87044,55.45867,0</coordinates>
      </Point>
    </Placemark>
    <Placemark>
      <name>Plastakos ez. (Ež.)</name>
      <description></description>
      <Point>
        <coordinates>25.05480,55.31975,0</coordinates>
      </Point>
    </Placemark>
    <Placemark>
      <name>Priegodas (Ež.)</name>
      <description></description>
      <Point>
        <coordinates>25.28005,55.67771,0</coordinates>
      </Point>
    </Placemark>
    <Placemark>
      <name>Rubikiu ez. (Ež.)</name>
      <description></description>
      <Point>
        <coordinates>25.28394,55.50608,0</coordinates>
      </Point>
    </Placemark>
    <Placemark>
      <name>Seduikiu ez. (Ež.)</name>
      <description></description>
      <Point>
        <coordinates>25.47695,55.72661,0</coordinates>
      </Point>
    </Placemark>
    <Placemark>
      <name>Skaistis (Ež.)</name>
      <description></description>
      <Point>
        <coordinates>25.21143,55.68512,0</coordinates>
      </Point>
    </Placemark>
    <Placemark>
      <name>Smulkis (Ež.)</name>
      <description></description>
      <Point>
        <coordinates>25.34994,55.46597,0</coordinates>
      </Point>
    </Placemark>
    <Placemark>
      <name>Suosa (Jurgiskio ez.) (Ež.)</name>
      <description></description>
      <Point>
        <coordinates>24.99843,55.72602,0</coordinates>
      </Point>
    </Placemark>
    <Placemark>
      <name>Svedasas (Ež.)</name>
      <description></description>
      <Point>
        <coordinates>25.36675,55.69827,0</coordinates>
      </Point>
    </Placemark>
    <Placemark>
      <name>Uosintelis (Ež.)</name>
      <description></description>
      <Point>
        <coordinates>25.40111,55.67669,0</coordinates>
      </Point>
    </Placemark>
    <Placemark>
      <name>Vasuokenu ez. (Ež.)</name>
      <description></description>
      <Point>
        <coordinates>24.87446,55.63674,0</coordinates>
      </Point>
    </Placemark>
    <Placemark>
      <name>Viesintas (Ež.)</name>
      <description></description>
      <Point>
        <coordinates>24.95406,55.68782,0</coordinates>
      </Point>
    </Placemark>
    <Placemark>
      <name>Ageniskio tv. (Ež.)</name>
      <description></description>
      <Point>
        <coordinates>24.94878,56.17540,0</coordinates>
      </Point>
    </Placemark>
    <Placemark>
      <name>Draseikiu ez. (Ež.)</name>
      <description></description>
      <Point>
        <coordinates>24.82549,56.19637,0</coordinates>
      </Point>
    </Placemark>
    <Placemark>
      <name>Ezerelis (Ež.)</name>
      <description></description>
      <Point>
        <coordinates>24.70180,56.23745,0</coordinates>
      </Point>
    </Placemark>
    <Placemark>
      <name>Jonavos ez. (Ež.)</name>
      <description></description>
      <Point>
        <coordinates>24.69945,56.26008,0</coordinates>
      </Point>
    </Placemark>
    <Placemark>
      <name>Kiluciu ez.tv. (Ež.)</name>
      <description></description>
      <Point>
        <coordinates>24.77496,56.18081,0</coordinates>
      </Point>
    </Placemark>
    <Placemark>
      <name>Ruoliskis (Ež.)</name>
      <description></description>
      <Point>
        <coordinates>24.80795,56.20825,0</coordinates>
      </Point>
    </Placemark>
    <Placemark>
      <name>Sirvenos ez. (Ež.)</name>
      <description></description>
      <Point>
        <coordinates>24.75407,56.21302,0</coordinates>
      </Point>
    </Placemark>
    <Placemark>
      <name>Birstono tv. (Ež.)</name>
      <description></description>
      <Point>
        <coordinates>24.01867,54.60912,0</coordinates>
      </Point>
    </Placemark>
    <Placemark>
      <name>Jundeliskiu HE tv. (Ež.)</name>
      <description></description>
      <Point>
        <coordinates>24.12959,54.58060,0</coordinates>
      </Point>
    </Placemark>
    <Placemark>
      <name>Sirviniu tv. (Ež.)</name>
      <description></description>
      <Point>
        <coordinates>24.05996,54.59068,0</coordinates>
      </Point>
    </Placemark>
    <Placemark>
      <name>Asarinis (Ež.)</name>
      <description></description>
      <Point>
        <coordinates>24.09314,54.01037,0</coordinates>
      </Point>
    </Placemark>
    <Placemark>
      <name>Aviris (Ež.)</name>
      <description></description>
      <Point>
        <coordinates>23.92549,54.08603,0</coordinates>
      </Point>
    </Placemark>
    <Placemark>
      <name>Bilsas Baltajis (Ež.)</name>
      <description></description>
      <Point>
        <coordinates>23.87837,54.05739,0</coordinates>
      </Point>
    </Placemark>
    <Placemark>
      <name>Bilsas Juodajis (Ež.)</name>
      <description></description>
      <Point>
        <coordinates>23.88556,54.04205,0</coordinates>
      </Point>
    </Placemark>
    <Placemark>
      <name>Drapalis (Ež.)</name>
      <description></description>
      <Point>
        <coordinates>23.90684,54.16661,0</coordinates>
      </Point>
    </Placemark>
    <Placemark>
      <name>Druskininku tv. (Ež.)</name>
      <description></description>
      <Point>
        <coordinates>23.97327,54.01473,0</coordinates>
      </Point>
    </Placemark>
    <Placemark>
      <name>Dubas (Ež.)</name>
      <description></description>
      <Point>
        <coordinates>24.16967,53.96072,0</coordinates>
      </Point>
    </Placemark>
    <Placemark>
      <name>Dulgas (Ež.)</name>
      <description></description>
      <Point>
        <coordinates>23.84042,54.03487,0</coordinates>
      </Point>
    </Placemark>
    <Placemark>
      <name>Gervinis (Ež.)</name>
      <description></description>
      <Point>
        <coordinates>23.90134,54.06495,0</coordinates>
      </Point>
    </Placemark>
    <Placemark>
      <name>Giedavardys (Ež.)</name>
      <description></description>
      <Point>
        <coordinates>23.89008,54.14689,0</coordinates>
      </Point>
    </Placemark>
    <Placemark>
      <name>Grutas (Ež.)</name>
      <description></description>
      <Point>
        <coordinates>24.08210,54.02740,0</coordinates>
      </Point>
    </Placemark>
    <Placemark>
      <name>Ilgelis (Ež.)</name>
      <description></description>
      <Point>
        <coordinates>23.96189,54.08400,0</coordinates>
      </Point>
    </Placemark>
    <Placemark>
      <name>Ilgis (Ež.)</name>
      <description></description>
      <Point>
        <coordinates>24.08483,54.04089,0</coordinates>
      </Point>
    </Placemark>
    <Placemark>
      <name>Juodelis (Ež.)</name>
      <description></description>
      <Point>
        <coordinates>23.97028,54.07702,0</coordinates>
      </Point>
    </Placemark>
    <Placemark>
      <name>Krastas (Ež.)</name>
      <description></description>
      <Point>
        <coordinates>23.86364,54.15302,0</coordinates>
      </Point>
    </Placemark>
    <Placemark>
      <name>Latezeris (Ež.)</name>
      <description></description>
      <Point>
        <coordinates>24.10596,53.97636,0</coordinates>
      </Point>
    </Placemark>
    <Placemark>
      <name>Randamoniu ez. (Ež.)</name>
      <description></description>
      <Point>
        <coordinates>24.17832,54.04420,0</coordinates>
      </Point>
    </Placemark>
    <Placemark>
      <name>Sauliukas (Ež.)</name>
      <description></description>
      <Point>
        <coordinates>23.93116,54.12615,0</coordinates>
      </Point>
    </Placemark>
    <Placemark>
      <name>Saulys (Ež.)</name>
      <description></description>
      <Point>
        <coordinates>23.89463,54.13237,0</coordinates>
      </Point>
    </Placemark>
    <Placemark>
      <name>Skirzaitis (Ež.)</name>
      <description></description>
      <Point>
        <coordinates>23.88231,54.00674,0</coordinates>
      </Point>
    </Placemark>
    <Placemark>
      <name>Skirzius (Ež.)</name>
      <description></description>
      <Point>
        <coordinates>23.88483,54.01589,0</coordinates>
      </Point>
    </Placemark>
    <Placemark>
      <name>Tabalis (Ež.)</name>
      <description></description>
      <Point>
        <coordinates>23.95551,54.13312,0</coordinates>
      </Point>
    </Placemark>
    <Placemark>
      <name>Vilkas (Ež.)</name>
      <description></description>
      <Point>
        <coordinates>23.80533,54.12493,0</coordinates>
      </Point>
    </Placemark>
    <Placemark>
      <name>Zervynas (Ež.)</name>
      <description></description>
      <Point>
        <coordinates>23.93666,54.12965,0</coordinates>
      </Point>
    </Placemark>
    <Placemark>
      <name>Audejas (Ež.)</name>
      <description></description>
      <Point>
        <coordinates>24.58542,54.73861,0</coordinates>
      </Point>
    </Placemark>
    <Placemark>
      <name>Ausieniskiu ez. (Ež.)</name>
      <description></description>
      <Point>
        <coordinates>24.78388,54.79103,0</coordinates>
      </Point>
    </Placemark>
    <Placemark>
      <name>Baka (Ež.)</name>
      <description></description>
      <Point>
        <coordinates>24.85638,54.75360,0</coordinates>
      </Point>
    </Placemark>
    <Placemark>
      <name>Berzuolis (Ež.)</name>
      <description></description>
      <Point>
        <coordinates>24.68709,54.66190,0</coordinates>
      </Point>
    </Placemark>
    <Placemark>
      <name>Bizdukas (Ež.)</name>
      <description></description>
      <Point>
        <coordinates>24.68971,54.80073,0</coordinates>
      </Point>
    </Placemark>
    <Placemark>
      <name>Briaunis (Ež.)</name>
      <description></description>
      <Point>
        <coordinates>24.60045,54.71951,0</coordinates>
      </Point>
    </Placemark>
    <Placemark>
      <name>Dekis (Ež.)</name>
      <description></description>
      <Point>
        <coordinates>24.89363,54.73627,0</coordinates>
      </Point>
    </Placemark>
    <Placemark>
      <name>Gacku ez. (Ež.)</name>
      <description></description>
      <Point>
        <coordinates>24.66991,54.69496,0</coordinates>
      </Point>
    </Placemark>
    <Placemark>
      <name>Galvis (Ež.)</name>
      <description></description>
      <Point>
        <coordinates>24.58946,54.65472,0</coordinates>
      </Point>
    </Placemark>
    <Placemark>
      <name>Gelvis (Ež.)</name>
      <description></description>
      <Point>
        <coordinates>24.63427,54.67303,0</coordinates>
      </Point>
    </Placemark>
    <Placemark>
      <name>Gilusis (Ež.)</name>
      <description></description>
      <Point>
        <coordinates>24.61658,54.74470,0</coordinates>
      </Point>
    </Placemark>
    <Placemark>
      <name>Gilusis (Ež.)</name>
      <description></description>
      <Point>
        <coordinates>24.74652,54.70815,0</coordinates>
      </Point>
    </Placemark>
    <Placemark>
      <name>Gilusis (Ež.)</name>
      <description></description>
      <Point>
        <coordinates>24.79441,54.65767,0</coordinates>
      </Point>
    </Placemark>
    <Placemark>
      <name>Ilgis (Ež.)</name>
      <description></description>
      <Point>
        <coordinates>24.59038,54.77820,0</coordinates>
      </Point>
    </Placemark>
    <Placemark>
      <name>Katiliske (Ež.)</name>
      <description></description>
      <Point>
        <coordinates>24.79016,54.69442,0</coordinates>
      </Point>
    </Placemark>
    <Placemark>
      <name>Lietuvos VRE tv. (Ež.)</name>
      <description></description>
      <Point>
        <coordinates>24.66836,54.75078,0</coordinates>
      </Point>
    </Placemark>
    <Placemark>
      <name>Lojus (Ež.)</name>
      <description></description>
      <Point>
        <coordinates>24.70463,54.66712,0</coordinates>
      </Point>
    </Placemark>
    <Placemark>
      <name>Monaitis (Ež.)</name>
      <description></description>
      <Point>
        <coordinates>24.77943,54.65036,0</coordinates>
      </Point>
    </Placemark>
    <Placemark>
      <name>Monis (Ež.)</name>
      <description></description>
      <Point>
        <coordinates>24.75597,54.64800,0</coordinates>
      </Point>
    </Placemark>
    <Placemark>
      <name>Narucioniu ez. (Ež.)</name>
      <description></description>
      <Point>
        <coordinates>24.77819,54.74069,0</coordinates>
      </Point>
    </Placemark>
    <Placemark>
      <name>Naujuju Kietaviskiu tv. (Ež.)</name>
      <description></description>
      <Point>
        <coordinates>24.60169,54.75625,0</coordinates>
      </Point>
    </Placemark>
    <Placemark>
      <name>Nestrevantys (Ež.)</name>
      <description></description>
      <Point>
        <coordinates>24.67493,54.65526,0</coordinates>
      </Point>
    </Placemark>
    <Placemark>
      <name>Orys (Ež.)</name>
      <description></description>
      <Point>
        <coordinates>24.71225,54.76706,0</coordinates>
      </Point>
    </Placemark>
    <Placemark>
      <name>Pastrevio HE tv. (Ež.)</name>
      <description></description>
      <Point>
        <coordinates>24.66334,54.70619,0</coordinates>
      </Point>
    </Placemark>
    <Placemark>
      <name>Siemetis (Ež.)</name>
      <description></description>
      <Point>
        <coordinates>24.86789,54.73058,0</coordinates>
      </Point>
    </Placemark>
    <Placemark>
      <name>Sirine (Ež.)</name>
      <description></description>
      <Point>
        <coordinates>24.93445,54.72249,0</coordinates>
      </Point>
    </Placemark>
    <Placemark>
      <name>Skynimu ez. (Ež.)</name>
      <description></description>
      <Point>
        <coordinates>24.76419,54.74885,0</coordinates>
      </Point>
    </Placemark>
    <Placemark>
      <name>Stanciku ez. (Ež.)</name>
      <description></description>
      <Point>
        <coordinates>24.65480,54.70961,0</coordinates>
      </Point>
    </Placemark>
    <Placemark>
      <name>Stanciku ez. (Ež.)</name>
      <description></description>
      <Point>
        <coordinates>24.65144,54.71227,0</coordinates>
      </Point>
    </Placemark>
    <Placemark>
      <name>Strevininku ez. (Ež.)</name>
      <description></description>
      <Point>
        <coordinates>24.76054,54.70283,0</coordinates>
      </Point>
    </Placemark>
    <Placemark>
      <name>Svencius (Ež.)</name>
      <description></description>
      <Point>
        <coordinates>24.59016,54.72568,0</coordinates>
      </Point>
    </Placemark>
    <Placemark>
      <name>Vaisietis (Ež.)</name>
      <description></description>
      <Point>
        <coordinates>24.56691,54.65182,0</coordinates>
      </Point>
    </Placemark>
    <Placemark>
      <name>Verpiskiai (Ež.)</name>
      <description></description>
      <Point>
        <coordinates>24.87206,54.78336,0</coordinates>
      </Point>
    </Placemark>
    <Placemark>
      <name>Vievio ez. (Ež.)</name>
      <description></description>
      <Point>
        <coordinates>24.82106,54.75593,0</coordinates>
      </Point>
    </Placemark>
    <Placemark>
      <name>Vievio tv. (Ež.)</name>
      <description></description>
      <Point>
        <coordinates>24.81730,54.78813,0</coordinates>
      </Point>
    </Placemark>
    <Placemark>
      <name>Zelva (Ež.)</name>
      <description></description>
      <Point>
        <coordinates>24.79555,54.81800,0</coordinates>
      </Point>
    </Placemark>
    <Placemark>
      <name>Agarinis (Ež.)</name>
      <description></description>
      <Point>
        <coordinates>26.17096,55.32670,0</coordinates>
      </Point>
    </Placemark>
    <Placemark>
      <name>Agarinis (Ež.)</name>
      <description></description>
      <Point>
        <coordinates>26.67784,55.31333,0</coordinates>
      </Point>
    </Placemark>
    <Placemark>
      <name>Alksnaitis (Alksnas) (Ež.)</name>
      <description></description>
      <Point>
        <coordinates>25.99188,55.35258,0</coordinates>
      </Point>
    </Placemark>
    <Placemark>
      <name>Alksnas (Ež.)</name>
      <description></description>
      <Point>
        <coordinates>26.44836,55.50166,0</coordinates>
      </Point>
    </Placemark>
    <Placemark>
      <name>Almajas (Ež.)</name>
      <description></description>
      <Point>
        <coordinates>25.97941,55.39130,0</coordinates>
      </Point>
    </Placemark>
    <Placemark>
      <name>Apvardai (Ež.)</name>
      <description></description>
      <Point>
        <coordinates>26.51620,55.52082,0</coordinates>
      </Point>
    </Placemark>
    <Placemark>
      <name>Asalnai (Ež.)</name>
      <description></description>
      <Point>
        <coordinates>26.04074,55.35302,0</coordinates>
      </Point>
    </Placemark>
    <Placemark>
      <name>Asekas (Ež.)</name>
      <description></description>
      <Point>
        <coordinates>26.01332,55.36997,0</coordinates>
      </Point>
    </Placemark>
    <Placemark>
      <name>Audenis (Ež.)</name>
      <description></description>
      <Point>
        <coordinates>26.38580,55.37959,0</coordinates>
      </Point>
    </Placemark>
    <Placemark>
      <name>Aukslinis (Ež.)</name>
      <description></description>
      <Point>
        <coordinates>25.97291,55.28442,0</coordinates>
      </Point>
    </Placemark>
    <Placemark>
      <name>Aukslinis (Ež.)</name>
      <description></description>
      <Point>
        <coordinates>25.96415,55.28703,0</coordinates>
      </Point>
    </Placemark>
    <Placemark>
      <name>Azvintaitis (Ež.)</name>
      <description></description>
      <Point>
        <coordinates>26.04524,55.49281,0</coordinates>
      </Point>
    </Placemark>
    <Placemark>
      <name>Azvintis (Ež.)</name>
      <description></description>
      <Point>
        <coordinates>26.08731,55.48855,0</coordinates>
      </Point>
    </Placemark>
    <Placemark>
      <name>Baltys (Ež.)</name>
      <description></description>
      <Point>
        <coordinates>26.04674,55.38187,0</coordinates>
      </Point>
    </Placemark>
    <Placemark>
      <name>Baltys (Ež.)</name>
      <description></description>
      <Point>
        <coordinates>26.01199,55.29068,0</coordinates>
      </Point>
    </Placemark>
    <Placemark>
      <name>Baltys (Ež.)</name>
      <description></description>
      <Point>
        <coordinates>26.08404,55.29852,0</coordinates>
      </Point>
    </Placemark>
    <Placemark>
      <name>Baltys (Ež.)</name>
      <description></description>
      <Point>
        <coordinates>26.18557,55.35735,0</coordinates>
      </Point>
    </Placemark>
    <Placemark>
      <name>Baluosas (Ež.)</name>
      <description></description>
      <Point>
        <coordinates>26.02847,55.40175,0</coordinates>
      </Point>
    </Placemark>
    <Placemark>
      <name>Baluosykstis (Ež.)</name>
      <description></description>
      <Point>
        <coordinates>26.01559,55.39053,0</coordinates>
      </Point>
    </Placemark>
    <Placemark>
      <name>Berziniku ez. (Ež.)</name>
      <description></description>
      <Point>
        <coordinates>26.36449,55.53970,0</coordinates>
      </Point>
    </Placemark>
    <Placemark>
      <name>Berzininku ez. (Ež.)</name>
      <description></description>
      <Point>
        <coordinates>26.37073,55.53347,0</coordinates>
      </Point>
    </Placemark>
    <Placemark>
      <name>Berzinis (Ež.)</name>
      <description></description>
      <Point>
        <coordinates>26.34296,55.57091,0</coordinates>
      </Point>
    </Placemark>
    <Placemark>
      <name>Bestinis (Ež.)</name>
      <description></description>
      <Point>
        <coordinates>26.40406,55.57122,0</coordinates>
      </Point>
    </Placemark>
    <Placemark>
      <name>Birvetos zv. tv. (Ež.)</name>
      <description></description>
      <Point>
        <coordinates>26.78083,55.31153,0</coordinates>
      </Point>
    </Placemark>
    <Placemark>
      <name>Birvetos zv. tv. (Ež.)</name>
      <description></description>
      <Point>
        <coordinates>26.74639,55.31097,0</coordinates>
      </Point>
    </Placemark>
    <Placemark>
      <name>Birvetos zv. tv. (Ež.)</name>
      <description></description>
      <Point>
        <coordinates>26.76420,55.30236,0</coordinates>
      </Point>
    </Placemark>
    <Placemark>
      <name>Birvetos zv. tv. (Ež.)</name>
      <description></description>
      <Point>
        <coordinates>26.75943,55.29827,0</coordinates>
      </Point>
    </Placemark>
    <Placemark>
      <name>Birvetos zv. tv. (Ež.)</name>
      <description></description>
      <Point>
        <coordinates>26.72030,55.31046,0</coordinates>
      </Point>
    </Placemark>
    <Placemark>
      <name>Birvetos zv. tv. (Ež.)</name>
      <description></description>
      <Point>
        <coordinates>26.77317,55.31237,0</coordinates>
      </Point>
    </Placemark>
    <Placemark>
      <name>Birvetos zv. tv. (Ež.)</name>
      <description></description>
      <Point>
        <coordinates>26.77385,55.29763,0</coordinates>
      </Point>
    </Placemark>
    <Placemark>
      <name>Birvetos zv. tv. (Ež.)</name>
      <description></description>
      <Point>
        <coordinates>26.78922,55.29646,0</coordinates>
      </Point>
    </Placemark>
    <Placemark>
      <name>Birvetos zv. tv. (Ež.)</name>
      <description></description>
      <Point>
        <coordinates>26.78294,55.29635,0</coordinates>
      </Point>
    </Placemark>
    <Placemark>
      <name>Birvetos zv. tv. (Ež.)</name>
      <description></description>
      <Point>
        <coordinates>26.78115,55.28788,0</coordinates>
      </Point>
    </Placemark>
    <Placemark>
      <name>Birvetos zv. tv. (Ež.)</name>
      <description></description>
      <Point>
        <coordinates>26.76391,55.30997,0</coordinates>
      </Point>
    </Placemark>
    <Placemark>
      <name>Birvetos zv. tv. (Ež.)</name>
      <description></description>
      <Point>
        <coordinates>26.78648,55.31201,0</coordinates>
      </Point>
    </Placemark>
    <Placemark>
      <name>Birvetos zv. tv. (Ež.)</name>
      <description></description>
      <Point>
        <coordinates>26.77645,55.30548,0</coordinates>
      </Point>
    </Placemark>
    <Placemark>
      <name>Darzinele (Ež.)</name>
      <description></description>
      <Point>
        <coordinates>26.18883,55.32845,0</coordinates>
      </Point>
    </Placemark>
    <Placemark>
      <name>Diemenas (Ež.)</name>
      <description></description>
      <Point>
        <coordinates>26.15532,55.32571,0</coordinates>
      </Point>
    </Placemark>
    <Placemark>
      <name>Dringis (Ež.)</name>
      <description></description>
      <Point>
        <coordinates>26.09586,55.36553,0</coordinates>
      </Point>
    </Placemark>
    <Placemark>
      <name>Dringis (Ež.)</name>
      <description></description>
      <Point>
        <coordinates>26.10565,55.37469,0</coordinates>
      </Point>
    </Placemark>
    <Placemark>
      <name>Dringykstis (Ež.)</name>
      <description></description>
      <Point>
        <coordinates>26.08291,55.34367,0</coordinates>
      </Point>
    </Placemark>
    <Placemark>
      <name>Dukstas (Ež.)</name>
      <description></description>
      <Point>
        <coordinates>26.30747,55.57955,0</coordinates>
      </Point>
    </Placemark>
    <Placemark>
      <name>Dukstas (Ež.)</name>
      <description></description>
      <Point>
        <coordinates>26.29254,55.57561,0</coordinates>
      </Point>
    </Placemark>
    <Placemark>
      <name>Dumblys (Ež.)</name>
      <description></description>
      <Point>
        <coordinates>26.64985,55.31277,0</coordinates>
      </Point>
    </Placemark>
    <Placemark>
      <name>Dysnai (Ež.)</name>
      <description></description>
      <Point>
        <coordinates>26.33365,55.48862,0</coordinates>
      </Point>
    </Placemark>
    <Placemark>
      <name>Dysnykstis (Ež.)</name>
      <description></description>
      <Point>
        <coordinates>26.37116,55.45911,0</coordinates>
      </Point>
    </Placemark>
    <Placemark>
      <name>Erzvetas (Ež.)</name>
      <description></description>
      <Point>
        <coordinates>26.52410,55.29666,0</coordinates>
      </Point>
    </Placemark>
    <Placemark>
      <name>Eserinis (Ež.)</name>
      <description></description>
      <Point>
        <coordinates>25.91498,55.31508,0</coordinates>
      </Point>
    </Placemark>
    <Placemark>
      <name>Ezeriukas (Ež.)</name>
      <description></description>
      <Point>
        <coordinates>26.32840,55.34137,0</coordinates>
      </Point>
    </Placemark>
    <Placemark>
      <name>Gaide (Ež.)</name>
      <description></description>
      <Point>
        <coordinates>26.54489,55.55506,0</coordinates>
      </Point>
    </Placemark>
    <Placemark>
      <name>Gavys (Ež.)</name>
      <description></description>
      <Point>
        <coordinates>26.14221,55.33171,0</coordinates>
      </Point>
    </Placemark>
    <Placemark>
      <name>Gilutaitis (Ež.)</name>
      <description></description>
      <Point>
        <coordinates>26.52147,55.22428,0</coordinates>
      </Point>
    </Placemark>
    <Placemark>
      <name>Gilutaitis (Ež.)</name>
      <description></description>
      <Point>
        <coordinates>26.63043,55.26669,0</coordinates>
      </Point>
    </Placemark>
    <Placemark>
      <name>Gilutas (Ež.)</name>
      <description></description>
      <Point>
        <coordinates>26.55071,55.46256,0</coordinates>
      </Point>
    </Placemark>
    <Placemark>
      <name>Gilutis (Ež.)</name>
      <description></description>
      <Point>
        <coordinates>26.14417,55.43653,0</coordinates>
      </Point>
    </Placemark>
    <Placemark>
      <name>Gruodiskis (Ež.)</name>
      <description></description>
      <Point>
        <coordinates>26.03661,55.38779,0</coordinates>
      </Point>
    </Placemark>
    <Placemark>
      <name>Gulbine (Ež.)</name>
      <description></description>
      <Point>
        <coordinates>26.17149,55.32013,0</coordinates>
      </Point>
    </Placemark>
    <Placemark>
      <name>Gulbinis (Ež.)</name>
      <description></description>
      <Point>
        <coordinates>26.45132,55.56739,0</coordinates>
      </Point>
    </Placemark>
    <Placemark>
      <name>Ilgaitis (Ež.)</name>
      <description></description>
      <Point>
        <coordinates>26.13423,55.30125,0</coordinates>
      </Point>
    </Placemark>
    <Placemark>
      <name>Ilgaitis (Ež.)</name>
      <description></description>
      <Point>
        <coordinates>26.50077,55.47190,0</coordinates>
      </Point>
    </Placemark>
    <Placemark>
      <name>Ilgiai (Ež.)</name>
      <description></description>
      <Point>
        <coordinates>26.43947,55.53143,0</coordinates>
      </Point>
    </Placemark>
    <Placemark>
      <name>Ilgis (Ež.)</name>
      <description></description>
      <Point>
        <coordinates>26.18685,55.35010,0</coordinates>
      </Point>
    </Placemark>
    <Placemark>
      <name>Joskutis (Ež.)</name>
      <description></description>
      <Point>
        <coordinates>26.00435,55.39971,0</coordinates>
      </Point>
    </Placemark>
    <Placemark>
      <name>Juodinis (Ež.)</name>
      <description></description>
      <Point>
        <coordinates>26.11332,55.34356,0</coordinates>
      </Point>
    </Placemark>
    <Placemark>
      <name>Karaciunka (Ež.)</name>
      <description></description>
      <Point>
        <coordinates>26.38190,55.57760,0</coordinates>
      </Point>
    </Placemark>
    <Placemark>
      <name>Kiaunas (Ež.)</name>
      <description></description>
      <Point>
        <coordinates>25.87253,55.31046,0</coordinates>
      </Point>
    </Placemark>
    <Placemark>
      <name>Kikizeris (Ež.)</name>
      <description></description>
      <Point>
        <coordinates>26.45850,55.27252,0</coordinates>
      </Point>
    </Placemark>
    <Placemark>
      <name>Korinas (Ež.)</name>
      <description></description>
      <Point>
        <coordinates>26.30176,55.25605,0</coordinates>
      </Point>
    </Placemark>
    <Placemark>
      <name>Krakinis (Ež.)</name>
      <description></description>
      <Point>
        <coordinates>26.25962,55.29064,0</coordinates>
      </Point>
    </Placemark>
    <Placemark>
      <name>Krakinys (Ež.)</name>
      <description></description>
      <Point>
        <coordinates>26.46702,55.47200,0</coordinates>
      </Point>
    </Placemark>
    <Placemark>
      <name>Kurtinys (Ež.)</name>
      <description></description>
      <Point>
        <coordinates>26.34996,55.44292,0</coordinates>
      </Point>
    </Placemark>
    <Placemark>
      <name>Labakarsys (Ež.)</name>
      <description></description>
      <Point>
        <coordinates>26.00167,55.29888,0</coordinates>
      </Point>
    </Placemark>
    <Placemark>
      <name>Laukojys (Ež.)</name>
      <description></description>
      <Point>
        <coordinates>26.11129,55.30920,0</coordinates>
      </Point>
    </Placemark>
    <Placemark>
      <name>Laumiakys (Ež.)</name>
      <description></description>
      <Point>
        <coordinates>26.07130,55.37578,0</coordinates>
      </Point>
    </Placemark>
    <Placemark>
      <name>Liminas (Ež.)</name>
      <description></description>
      <Point>
        <coordinates>25.93547,55.31400,0</coordinates>
      </Point>
    </Placemark>
    <Placemark>
      <name>Linkmenas (Ež.)</name>
      <description></description>
      <Point>
        <coordinates>25.99603,55.36558,0</coordinates>
      </Point>
    </Placemark>
    <Placemark>
      <name>Liuneliai (Ež.)</name>
      <description></description>
      <Point>
        <coordinates>26.45973,55.48961,0</coordinates>
      </Point>
    </Placemark>
    <Placemark>
      <name>Liuneliai (Ež.)</name>
      <description></description>
      <Point>
        <coordinates>26.44087,55.49391,0</coordinates>
      </Point>
    </Placemark>
    <Placemark>
      <name>Lobazis (Ež.)</name>
      <description></description>
      <Point>
        <coordinates>25.94367,55.28750,0</coordinates>
      </Point>
    </Placemark>
    <Placemark>
      <name>Lukosiskes ez. (Ež.)</name>
      <description></description>
      <Point>
        <coordinates>26.48943,55.33177,0</coordinates>
      </Point>
    </Placemark>
    <Placemark>
      <name>Lusiai (Ež.)</name>
      <description></description>
      <Point>
        <coordinates>26.05472,55.33565,0</coordinates>
      </Point>
    </Placemark>
    <Placemark>
      <name>Meksrinis (Ež.)</name>
      <description></description>
      <Point>
        <coordinates>26.16528,55.34938,0</coordinates>
      </Point>
    </Placemark>
    <Placemark>
      <name>Merkmenys (Ež.)</name>
      <description></description>
      <Point>
        <coordinates>26.28506,55.23322,0</coordinates>
      </Point>
    </Placemark>
    <Placemark>
      <name>Milasaitis (Ež.)</name>
      <description></description>
      <Point>
        <coordinates>26.45783,55.23916,0</coordinates>
      </Point>
    </Placemark>
    <Placemark>
      <name>Milasius (Ež.)</name>
      <description></description>
      <Point>
        <coordinates>26.47618,55.22149,0</coordinates>
      </Point>
    </Placemark>
    <Placemark>
      <name>Munas (Ež.)</name>
      <description></description>
      <Point>
        <coordinates>26.40328,55.41932,0</coordinates>
      </Point>
    </Placemark>
    <Placemark>
      <name>Notryne (Ež.)</name>
      <description></description>
      <Point>
        <coordinates>26.19531,55.48949,0</coordinates>
      </Point>
    </Placemark>
    <Placemark>
      <name>Paceikines ez. (Ež.)</name>
      <description></description>
      <Point>
        <coordinates>26.28609,55.25850,0</coordinates>
      </Point>
    </Placemark>
    <Placemark>
      <name>Padysnio tv. (Ež.)</name>
      <description></description>
      <Point>
        <coordinates>26.36235,55.42561,0</coordinates>
      </Point>
    </Placemark>
    <Placemark>
      <name>Pakalas (Ež.)</name>
      <description></description>
      <Point>
        <coordinates>25.90958,55.32748,0</coordinates>
      </Point>
    </Placemark>
    <Placemark>
      <name>Pakasas (Ež.)</name>
      <description></description>
      <Point>
        <coordinates>25.94902,55.38606,0</coordinates>
      </Point>
    </Placemark>
    <Placemark>
      <name>Palaukinis (Ež.)</name>
      <description></description>
      <Point>
        <coordinates>26.14649,55.34410,0</coordinates>
      </Point>
    </Placemark>
    <Placemark>
      <name>Paplovinis (Ež.)</name>
      <description></description>
      <Point>
        <coordinates>26.15904,55.34685,0</coordinates>
      </Point>
    </Placemark>
    <Placemark>
      <name>Parsvetaitis (Ež.)</name>
      <description></description>
      <Point>
        <coordinates>26.32618,55.54806,0</coordinates>
      </Point>
    </Placemark>
    <Placemark>
      <name>Parsvetas (Ež.)</name>
      <description></description>
      <Point>
        <coordinates>26.32670,55.53621,0</coordinates>
      </Point>
    </Placemark>
    <Placemark>
      <name>Pasamane (Ež.)</name>
      <description></description>
      <Point>
        <coordinates>26.50861,55.56690,0</coordinates>
      </Point>
    </Placemark>
    <Placemark>
      <name>Pazemenis (Ež.)</name>
      <description></description>
      <Point>
        <coordinates>26.30631,55.56083,0</coordinates>
      </Point>
    </Placemark>
    <Placemark>
      <name>Pravalas (Ež.)</name>
      <description></description>
      <Point>
        <coordinates>26.13774,55.29789,0</coordinates>
      </Point>
    </Placemark>
    <Placemark>
      <name>Prutas (Ež.)</name>
      <description></description>
      <Point>
        <coordinates>26.54209,55.48023,0</coordinates>
      </Point>
    </Placemark>
    <Placemark>
      <name>Raibeniu ez. (Ež.)</name>
      <description></description>
      <Point>
        <coordinates>26.44339,55.40803,0</coordinates>
      </Point>
    </Placemark>
    <Placemark>
      <name>Rauketa (Ež.)</name>
      <description></description>
      <Point>
        <coordinates>26.54568,55.42607,0</coordinates>
      </Point>
    </Placemark>
    <Placemark>
      <name>Rimsciko (Margavones) (Ež.)</name>
      <description></description>
      <Point>
        <coordinates>26.06934,55.48936,0</coordinates>
      </Point>
    </Placemark>
    <Placemark>
      <name>Ringys (Ež.)</name>
      <description></description>
      <Point>
        <coordinates>26.35097,55.31557,0</coordinates>
      </Point>
    </Placemark>
    <Placemark>
      <name>Rukstys (Ež.)</name>
      <description></description>
      <Point>
        <coordinates>26.36798,55.51921,0</coordinates>
      </Point>
    </Placemark>
    <Placemark>
      <name>Ruzas (Ež.)</name>
      <description></description>
      <Point>
        <coordinates>26.48579,55.48712,0</coordinates>
      </Point>
    </Placemark>
    <Placemark>
      <name>Sagardas (Ež.)</name>
      <description></description>
      <Point>
        <coordinates>26.12644,55.49572,0</coordinates>
      </Point>
    </Placemark>
    <Placemark>
      <name>Sakarvai (Ež.)</name>
      <description></description>
      <Point>
        <coordinates>26.05930,55.31917,0</coordinates>
      </Point>
    </Placemark>
    <Placemark>
      <name>Samanis (Ež.)</name>
      <description></description>
      <Point>
        <coordinates>26.30522,55.55006,0</coordinates>
      </Point>
    </Placemark>
    <Placemark>
      <name>Saminis (Ež.)</name>
      <description></description>
      <Point>
        <coordinates>25.93577,55.40995,0</coordinates>
      </Point>
    </Placemark>
    <Placemark>
      <name>Saminis (Ež.)</name>
      <description></description>
      <Point>
        <coordinates>26.34815,55.41289,0</coordinates>
      </Point>
    </Placemark>
    <Placemark>
      <name>Sekluotis (Ež.)</name>
      <description></description>
      <Point>
        <coordinates>26.16240,55.43555,0</coordinates>
      </Point>
    </Placemark>
    <Placemark>
      <name>Skaidrys (Ež.)</name>
      <description></description>
      <Point>
        <coordinates>26.35385,55.59787,0</coordinates>
      </Point>
    </Placemark>
    <Placemark>
      <name>Skrytas (Skripku ez.) (Ež.)</name>
      <description></description>
      <Point>
        <coordinates>26.55668,55.58077,0</coordinates>
      </Point>
    </Placemark>
    <Placemark>
      <name>Skudutis (Ež.)</name>
      <description></description>
      <Point>
        <coordinates>26.15906,55.31661,0</coordinates>
      </Point>
    </Placemark>
    <Placemark>
      <name>Srove (Srovinaitis) (Ež.)</name>
      <description></description>
      <Point>
        <coordinates>26.00619,55.38631,0</coordinates>
      </Point>
    </Placemark>
    <Placemark>
      <name>Staskines ez. (Ež.)</name>
      <description></description>
      <Point>
        <coordinates>26.36059,55.22740,0</coordinates>
      </Point>
    </Placemark>
    <Placemark>
      <name>Sventas (Ež.)</name>
      <description></description>
      <Point>
        <coordinates>25.87854,55.33568,0</coordinates>
      </Point>
    </Placemark>
    <Placemark>
      <name>Svirku ez. (Ež.)</name>
      <description></description>
      <Point>
        <coordinates>26.66787,55.27984,0</coordinates>
      </Point>
    </Placemark>
    <Placemark>
      <name>Svoginas (Ež.)</name>
      <description></description>
      <Point>
        <coordinates>26.15972,55.42857,0</coordinates>
      </Point>
    </Placemark>
    <Placemark>
      <name>Taramas (Ež.)</name>
      <description></description>
      <Point>
        <coordinates>26.10112,55.33911,0</coordinates>
      </Point>
    </Placemark>
    <Placemark>
      <name>Tarlokiskes ez. (Ež.)</name>
      <description></description>
      <Point>
        <coordinates>26.15129,55.49001,0</coordinates>
      </Point>
    </Placemark>
    <Placemark>
      <name>Trilypis (Ež.)</name>
      <description></description>
      <Point>
        <coordinates>26.36806,55.59650,0</coordinates>
      </Point>
    </Placemark>
    <Placemark>
      <name>Tuolas (Ež.)</name>
      <description></description>
      <Point>
        <coordinates>26.17295,55.26357,0</coordinates>
      </Point>
    </Placemark>
    <Placemark>
      <name>Tvereciaus ez. (Ež.)</name>
      <description></description>
      <Point>
        <coordinates>26.59358,55.31744,0</coordinates>
      </Point>
    </Placemark>
    <Placemark>
      <name>Ukojas (Ež.)</name>
      <description></description>
      <Point>
        <coordinates>25.97348,55.36948,0</coordinates>
      </Point>
    </Placemark>
    <Placemark>
      <name>Usiai (Ež.)</name>
      <description></description>
      <Point>
        <coordinates>25.97319,55.30129,0</coordinates>
      </Point>
    </Placemark>
    <Placemark>
      <name>Varnys (Ež.)</name>
      <description></description>
      <Point>
        <coordinates>26.20659,55.36811,0</coordinates>
      </Point>
    </Placemark>
    <Placemark>
      <name>Velykstis (Ež.)</name>
      <description></description>
      <Point>
        <coordinates>26.21859,55.31813,0</coordinates>
      </Point>
    </Placemark>
    <Placemark>
      <name>Velys (Ež.)</name>
      <description></description>
      <Point>
        <coordinates>26.22448,55.30670,0</coordinates>
      </Point>
    </Placemark>
    <Placemark>
      <name>Viksvojis (Ež.)</name>
      <description></description>
      <Point>
        <coordinates>26.20166,55.33504,0</coordinates>
      </Point>
    </Placemark>
    <Placemark>
      <name>Viksvojis (Ež.)</name>
      <description></description>
      <Point>
        <coordinates>26.20079,55.32923,0</coordinates>
      </Point>
    </Placemark>
    <Placemark>
      <name>Vireksta (Ež.)</name>
      <description></description>
      <Point>
        <coordinates>26.26774,55.34257,0</coordinates>
      </Point>
    </Placemark>
    <Placemark>
      <name>Zaliasai (Ež.)</name>
      <description></description>
      <Point>
        <coordinates>26.18374,55.33376,0</coordinates>
      </Point>
    </Placemark>
    <Placemark>
      <name>Ziezdras (Ež.)</name>
      <description></description>
      <Point>
        <coordinates>25.94311,55.32085,0</coordinates>
      </Point>
    </Placemark>
    <Placemark>
      <name>Ziezulinis (Ež.)</name>
      <description></description>
      <Point>
        <coordinates>26.20460,55.34193,0</coordinates>
      </Point>
    </Placemark>
    <Placemark>
      <name>Zilmaitis (Ež.)</name>
      <description></description>
      <Point>
        <coordinates>26.47065,55.51674,0</coordinates>
      </Point>
    </Placemark>
    <Placemark>
      <name>Zilmas (Ež.)</name>
      <description></description>
      <Point>
        <coordinates>26.47895,55.50779,0</coordinates>
      </Point>
    </Placemark>
    <Placemark>
      <name>Baltas (Ež.)</name>
      <description></description>
      <Point>
        <coordinates>24.45699,55.12829,0</coordinates>
      </Point>
    </Placemark>
    <Placemark>
      <name>Bartoniu tv. (Ež.)</name>
      <description></description>
      <Point>
        <coordinates>24.14251,55.04938,0</coordinates>
      </Point>
    </Placemark>
    <Placemark>
      <name>Bartoniu tv. (Ež.)</name>
      <description></description>
      <Point>
        <coordinates>24.16984,55.05163,0</coordinates>
      </Point>
    </Placemark>
    <Placemark>
      <name>Bartoniu tv. (Ež.)</name>
      <description></description>
      <Point>
        <coordinates>24.14768,55.05158,0</coordinates>
      </Point>
    </Placemark>
    <Placemark>
      <name>Bartoniu tv. (Ež.)</name>
      <description></description>
      <Point>
        <coordinates>24.18667,55.05313,0</coordinates>
      </Point>
    </Placemark>
    <Placemark>
      <name>Berzu tv. (Ež.)</name>
      <description></description>
      <Point>
        <coordinates>24.33794,55.11116,0</coordinates>
      </Point>
    </Placemark>
    <Placemark>
      <name>Birzuliu ez. (Ež.)</name>
      <description></description>
      <Point>
        <coordinates>24.39900,55.24128,0</coordinates>
      </Point>
    </Placemark>
    <Placemark>
      <name>Ilgajis (Ež.)</name>
      <description></description>
      <Point>
        <coordinates>24.49374,55.12680,0</coordinates>
      </Point>
    </Placemark>
    <Placemark>
      <name>Jonavos II tv. (Ež.)</name>
      <description></description>
      <Point>
        <coordinates>24.35168,55.07520,0</coordinates>
      </Point>
    </Placemark>
    <Placemark>
      <name>Jonavos tv. (Ež.)</name>
      <description></description>
      <Point>
        <coordinates>24.26512,55.08856,0</coordinates>
      </Point>
    </Placemark>
    <Placemark>
      <name>Juodas (Ež.)</name>
      <description></description>
      <Point>
        <coordinates>24.46684,55.12917,0</coordinates>
      </Point>
    </Placemark>
    <Placemark>
      <name>Mimainiu ez. (Ež.)</name>
      <description></description>
      <Point>
        <coordinates>24.35597,55.24473,0</coordinates>
      </Point>
    </Placemark>
    <Placemark>
      <name>Sveicarijos tv. (Ež.)</name>
      <description></description>
      <Point>
        <coordinates>24.25863,55.03902,0</coordinates>
      </Point>
    </Placemark>
    <Placemark>
      <name>Uzusaliu tv. (Ež.)</name>
      <description></description>
      <Point>
        <coordinates>24.19106,54.98420,0</coordinates>
      </Point>
    </Placemark>
    <Placemark>
      <name>Zeimelis (Ež.)</name>
      <description></description>
      <Point>
        <coordinates>24.33012,55.16412,0</coordinates>
      </Point>
    </Placemark>
    <Placemark>
      <name>Dargaiciu tv. (Ež.)</name>
      <description></description>
      <Point>
        <coordinates>23.31187,56.14646,0</coordinates>
      </Point>
    </Placemark>
    <Placemark>
      <name>Dauksiu I tv. (Ež.)</name>
      <description></description>
      <Point>
        <coordinates>23.32884,56.36889,0</coordinates>
      </Point>
    </Placemark>
    <Placemark>
      <name>Dauksiu II tv. (Ež.)</name>
      <description></description>
      <Point>
        <coordinates>23.36758,56.36871,0</coordinates>
      </Point>
    </Placemark>
    <Placemark>
      <name>Daunoravos II tv. (Ež.)</name>
      <description></description>
      <Point>
        <coordinates>23.56448,56.31015,0</coordinates>
      </Point>
    </Placemark>
    <Placemark>
      <name>Drasutaiciu tv. (Ež.)</name>
      <description></description>
      <Point>
        <coordinates>23.74750,56.34958,0</coordinates>
      </Point>
    </Placemark>
    <Placemark>
      <name>Joniskio I tv. (Ež.)</name>
      <description></description>
      <Point>
        <coordinates>23.59868,56.24766,0</coordinates>
      </Point>
    </Placemark>
    <Placemark>
      <name>Joniskio II tv. (Ež.)</name>
      <description></description>
      <Point>
        <coordinates>23.61096,56.24970,0</coordinates>
      </Point>
    </Placemark>
    <Placemark>
      <name>Jurdaiciu tv. (Ež.)</name>
      <description></description>
      <Point>
        <coordinates>23.35001,56.24224,0</coordinates>
      </Point>
    </Placemark>
    <Placemark>
      <name>Kemsiu tv. (Ež.)</name>
      <description></description>
      <Point>
        <coordinates>23.35617,56.31170,0</coordinates>
      </Point>
    </Placemark>
    <Placemark>
      <name>Linkaiciu I tv. (Ež.)</name>
      <description></description>
      <Point>
        <coordinates>23.50675,56.20591,0</coordinates>
      </Point>
    </Placemark>
    <Placemark>
      <name>Linkaiciu II tv. (Ež.)</name>
      <description></description>
      <Point>
        <coordinates>23.46850,56.18554,0</coordinates>
      </Point>
    </Placemark>
    <Placemark>
      <name>Maldeniu tv. (Ež.)</name>
      <description></description>
      <Point>
        <coordinates>23.48872,56.24707,0</coordinates>
      </Point>
    </Placemark>
    <Placemark>
      <name>Martyniskiu tv. (Ež.)</name>
      <description></description>
      <Point>
        <coordinates>23.10919,56.29494,0</coordinates>
      </Point>
    </Placemark>
    <Placemark>
      <name>Mielaiciu tv. (Ež.)</name>
      <description></description>
      <Point>
        <coordinates>23.68026,56.17764,0</coordinates>
      </Point>
    </Placemark>
    <Placemark>
      <name>Miknaiciu ez. (Ež.)</name>
      <description></description>
      <Point>
        <coordinates>23.25161,56.21513,0</coordinates>
      </Point>
    </Placemark>
    <Placemark>
      <name>Normanteliu tv. (Ež.)</name>
      <description></description>
      <Point>
        <coordinates>23.39767,56.25620,0</coordinates>
      </Point>
    </Placemark>
    <Placemark>
      <name>Pociuneliu tv. (Ež.)</name>
      <description></description>
      <Point>
        <coordinates>23.55503,56.24128,0</coordinates>
      </Point>
    </Placemark>
    <Placemark>
      <name>Ramoskiu tv. (Ež.)</name>
      <description></description>
      <Point>
        <coordinates>23.39052,56.32598,0</coordinates>
      </Point>
    </Placemark>
    <Placemark>
      <name>Rokuiziu tv. (Ež.)</name>
      <description></description>
      <Point>
        <coordinates>23.33482,56.35046,0</coordinates>
      </Point>
    </Placemark>
    <Placemark>
      <name>Skaistgiriu tv. (Ež.)</name>
      <description></description>
      <Point>
        <coordinates>23.38560,56.30150,0</coordinates>
      </Point>
    </Placemark>
    <Placemark>
      <name>Smaliu tv. (Ež.)</name>
      <description></description>
      <Point>
        <coordinates>23.51114,56.26988,0</coordinates>
      </Point>
    </Placemark>
    <Placemark>
      <name>Vilkiausio tv. (Ež.)</name>
      <description></description>
      <Point>
        <coordinates>23.54933,56.19781,0</coordinates>
      </Point>
    </Placemark>
    <Placemark>
      <name>Zvelgaiciu ez. (Ež.)</name>
      <description></description>
      <Point>
        <coordinates>23.21609,56.34771,0</coordinates>
      </Point>
    </Placemark>
    <Placemark>
      <name>Zvelgaiciu tv. (Ež.)</name>
      <description></description>
      <Point>
        <coordinates>23.19694,56.33774,0</coordinates>
      </Point>
    </Placemark>
    <Placemark>
      <name>Zvelgaiciu tv. (Ež.)</name>
      <description></description>
      <Point>
        <coordinates>23.17894,56.33035,0</coordinates>
      </Point>
    </Placemark>
    <Placemark>
      <name>Girdziu tv. (Ež.)</name>
      <description></description>
      <Point>
        <coordinates>22.82729,55.16208,0</coordinates>
      </Point>
    </Placemark>
    <Placemark>
      <name>Jurbarko tv. (Ež.)</name>
      <description></description>
      <Point>
        <coordinates>22.72089,55.08031,0</coordinates>
      </Point>
    </Placemark>
    <Placemark>
      <name>Kasikas (Ež.)</name>
      <description></description>
      <Point>
        <coordinates>22.42453,55.05744,0</coordinates>
      </Point>
    </Placemark>
    <Placemark>
      <name>Klausuciu tv. (Ež.)</name>
      <description></description>
      <Point>
        <coordinates>23.33122,55.11132,0</coordinates>
      </Point>
    </Placemark>
    <Placemark>
      <name>Palekiu ez. (Ilginys) (Ež.)</name>
      <description></description>
      <Point>
        <coordinates>22.61558,55.06615,0</coordinates>
      </Point>
    </Placemark>
    <Placemark>
      <name>Palekiu ez. (Ilginys) (Ež.)</name>
      <description></description>
      <Point>
        <coordinates>22.63713,55.06135,0</coordinates>
      </Point>
    </Placemark>
    <Placemark>
      <name>Pavidaujo tv. (Ež.)</name>
      <description></description>
      <Point>
        <coordinates>22.86437,55.20581,0</coordinates>
      </Point>
    </Placemark>
    <Placemark>
      <name>Smalininku tv. (Ež.)</name>
      <description></description>
      <Point>
        <coordinates>22.61269,55.09554,0</coordinates>
      </Point>
    </Placemark>
    <Placemark>
      <name>Viesviles tv. (Ež.)</name>
      <description></description>
      <Point>
        <coordinates>22.39434,55.08499,0</coordinates>
      </Point>
    </Placemark>
    <Placemark>
      <name>Viesviles tv. (Ež.)</name>
      <description></description>
      <Point>
        <coordinates>22.38914,55.07610,0</coordinates>
      </Point>
    </Placemark>
    <Placemark>
      <name>Volungiskiu tv. (Ež.)</name>
      <description></description>
      <Point>
        <coordinates>23.14859,55.18259,0</coordinates>
      </Point>
    </Placemark>
    <Placemark>
      <name>Baltas (Ež.)</name>
      <description></description>
      <Point>
        <coordinates>24.48945,54.98190,0</coordinates>
      </Point>
    </Placemark>
    <Placemark>
      <name>Bedugnis (Ež.)</name>
      <description></description>
      <Point>
        <coordinates>24.45964,54.98857,0</coordinates>
      </Point>
    </Placemark>
    <Placemark>
      <name>Bubliu tv. (Ež.)</name>
      <description></description>
      <Point>
        <coordinates>24.31417,54.82092,0</coordinates>
      </Point>
    </Placemark>
    <Placemark>
      <name>Gabys (Ež.)</name>
      <description></description>
      <Point>
        <coordinates>24.37375,54.68124,0</coordinates>
      </Point>
    </Placemark>
    <Placemark>
      <name>Kaisiadoriu HAE tv. (Ež.)</name>
      <description></description>
      <Point>
        <coordinates>24.26718,54.78218,0</coordinates>
      </Point>
    </Placemark>
    <Placemark>
      <name>Kaisiadoriu I (Gireles II) tv. (Ež.)</name>
      <description></description>
      <Point>
        <coordinates>24.42746,54.84669,0</coordinates>
      </Point>
    </Placemark>
    <Placemark>
      <name>Kalviu ez. (Ež.)</name>
      <description></description>
      <Point>
        <coordinates>24.26706,54.71233,0</coordinates>
      </Point>
    </Placemark>
    <Placemark>
      <name>Karciupio tv. (Ež.)</name>
      <description></description>
      <Point>
        <coordinates>24.13842,54.91441,0</coordinates>
      </Point>
    </Placemark>
    <Placemark>
      <name>Karciupio tv. (Ež.)</name>
      <description></description>
      <Point>
        <coordinates>24.13400,54.91597,0</coordinates>
      </Point>
    </Placemark>
    <Placemark>
      <name>Kovine (Ež.)</name>
      <description></description>
      <Point>
        <coordinates>24.46790,54.98735,0</coordinates>
      </Point>
    </Placemark>
    <Placemark>
      <name>Kriauciskiu ez. (Ež.)</name>
      <description></description>
      <Point>
        <coordinates>24.24428,54.70457,0</coordinates>
      </Point>
    </Placemark>
    <Placemark>
      <name>Liminas (Ež.)</name>
      <description></description>
      <Point>
        <coordinates>24.59269,54.86737,0</coordinates>
      </Point>
    </Placemark>
    <Placemark>
      <name>Mauciunu tv. (Ež.)</name>
      <description></description>
      <Point>
        <coordinates>24.59558,54.88851,0</coordinates>
      </Point>
    </Placemark>
    <Placemark>
      <name>Nepreksta (Ež.)</name>
      <description></description>
      <Point>
        <coordinates>24.47367,54.97351,0</coordinates>
      </Point>
    </Placemark>
    <Placemark>
      <name>Ovsenkos tv. (Ež.)</name>
      <description></description>
      <Point>
        <coordinates>24.61311,54.87259,0</coordinates>
      </Point>
    </Placemark>
    <Placemark>
      <name>Ovsenkos tv. (Ež.)</name>
      <description></description>
      <Point>
        <coordinates>24.60457,54.87806,0</coordinates>
      </Point>
    </Placemark>
    <Placemark>
      <name>Pamierio ez. (Ež.)</name>
      <description></description>
      <Point>
        <coordinates>24.26403,54.88287,0</coordinates>
      </Point>
    </Placemark>
    <Placemark>
      <name>Paparteliu tv. (Ež.)</name>
      <description></description>
      <Point>
        <coordinates>24.58390,54.89972,0</coordinates>
      </Point>
    </Placemark>
    <Placemark>
      <name>Pauksciu tv. (Ež.)</name>
      <description></description>
      <Point>
        <coordinates>24.59444,54.92079,0</coordinates>
      </Point>
    </Placemark>
    <Placemark>
      <name>Prazariskiu tv. (Ež.)</name>
      <description></description>
      <Point>
        <coordinates>24.58754,54.91077,0</coordinates>
      </Point>
    </Placemark>
    <Placemark>
      <name>Statkuniskes ez. (Ež.)</name>
      <description></description>
      <Point>
        <coordinates>24.58881,54.87374,0</coordinates>
      </Point>
    </Placemark>
    <Placemark>
      <name>Strevos tv. (Ež.)</name>
      <description></description>
      <Point>
        <coordinates>24.51292,54.78665,0</coordinates>
      </Point>
    </Placemark>
    <Placemark>
      <name>Svencius (Ež.)</name>
      <description></description>
      <Point>
        <coordinates>24.45221,54.65602,0</coordinates>
      </Point>
    </Placemark>
    <Placemark>
      <name>Triliskiu tv. (Ež.)</name>
      <description></description>
      <Point>
        <coordinates>24.44539,54.81660,0</coordinates>
      </Point>
    </Placemark>
    <Placemark>
      <name>Vilunu ez. (Ež.)</name>
      <description></description>
      <Point>
        <coordinates>24.23195,54.69528,0</coordinates>
      </Point>
    </Placemark>
    <Placemark>
      <name>Zalvarniu tv. (Ež.)</name>
      <description></description>
      <Point>
        <coordinates>24.44328,54.79000,0</coordinates>
      </Point>
    </Placemark>
    <Placemark>
      <name>Zasliu ez. (Ež.)</name>
      <description></description>
      <Point>
        <coordinates>24.58482,54.85256,0</coordinates>
      </Point>
    </Placemark>
    <Placemark>
      <name>Janavos (Ež.)</name>
      <description></description>
      <Point>
        <coordinates>23.25543,54.42972,0</coordinates>
      </Point>
    </Placemark>
    <Placemark>
      <name>Jurgezeriu tv. (Ež.)</name>
      <description></description>
      <Point>
        <coordinates>23.14714,54.42362,0</coordinates>
      </Point>
    </Placemark>
    <Placemark>
      <name>Kalvarijos tv. (Ež.)</name>
      <description></description>
      <Point>
        <coordinates>23.21609,54.42260,0</coordinates>
      </Point>
    </Placemark>
    <Placemark>
      <name>Kalvarijos tv. (Ež.)</name>
      <description></description>
      <Point>
        <coordinates>23.21109,54.42175,0</coordinates>
      </Point>
    </Placemark>
    <Placemark>
      <name>Kelmavytis (Ež.)</name>
      <description></description>
      <Point>
        <coordinates>23.13940,54.37764,0</coordinates>
      </Point>
    </Placemark>
    <Placemark>
      <name>Kvietkine (Ež.)</name>
      <description></description>
      <Point>
        <coordinates>23.28259,54.35623,0</coordinates>
      </Point>
    </Placemark>
    <Placemark>
      <name>Navasodu tv. (Ež.)</name>
      <description></description>
      <Point>
        <coordinates>23.10801,54.44122,0</coordinates>
      </Point>
    </Placemark>
    <Placemark>
      <name>Orija (Ež.)</name>
      <description></description>
      <Point>
        <coordinates>23.21420,54.38187,0</coordinates>
      </Point>
    </Placemark>
    <Placemark>
      <name>Raudeniskiu tv. (Ež.)</name>
      <description></description>
      <Point>
        <coordinates>23.24213,54.38711,0</coordinates>
      </Point>
    </Placemark>
    <Placemark>
      <name>Reketijos ez. (Ež.)</name>
      <description></description>
      <Point>
        <coordinates>23.09241,54.33340,0</coordinates>
      </Point>
    </Placemark>
    <Placemark>
      <name>Rudninku tv. (Ež.)</name>
      <description></description>
      <Point>
        <coordinates>23.19726,54.32740,0</coordinates>
      </Point>
    </Placemark>
    <Placemark>
      <name>Salaperangis1 (Ež.)</name>
      <description></description>
      <Point>
        <coordinates>23.12211,54.32626,0</coordinates>
      </Point>
    </Placemark>
    <Placemark>
      <name>Salaperaugis (Ež.)</name>
      <description></description>
      <Point>
        <coordinates>23.12867,54.32905,0</coordinates>
      </Point>
    </Placemark>
    <Placemark>
      <name>Sangrudos tv. (Ež.)</name>
      <description></description>
      <Point>
        <coordinates>23.23716,54.31768,0</coordinates>
      </Point>
    </Placemark>
    <Placemark>
      <name>Sarkaitis (Ež.)</name>
      <description></description>
      <Point>
        <coordinates>23.13587,54.35443,0</coordinates>
      </Point>
    </Placemark>
    <Placemark>
      <name>Skaistelis (Ež.)</name>
      <description></description>
      <Point>
        <coordinates>23.15031,54.40265,0</coordinates>
      </Point>
    </Placemark>
    <Placemark>
      <name>Lampedis (Ež.)</name>
      <description></description>
      <Point>
        <coordinates>23.81725,54.91539,0</coordinates>
      </Point>
    </Placemark>
    <Placemark>
      <name>Sargenu tv. (Ež.)</name>
      <description></description>
      <Point>
        <coordinates>23.88490,54.95330,0</coordinates>
      </Point>
    </Placemark>
    <Placemark>
      <name>Vaisvydavos tv. (Ež.)</name>
      <description></description>
      <Point>
        <coordinates>24.02598,54.83966,0</coordinates>
      </Point>
    </Placemark>
    <Placemark>
      <name>Vaisvydavos tv. (Ež.)</name>
      <description></description>
      <Point>
        <coordinates>24.02127,54.83883,0</coordinates>
      </Point>
    </Placemark>
    <Placemark>
      <name>Altoniskiu tv. (Ež.)</name>
      <description></description>
      <Point>
        <coordinates>23.58297,54.95288,0</coordinates>
      </Point>
    </Placemark>
    <Placemark>
      <name>Babtu tv. (Ež.)</name>
      <description></description>
      <Point>
        <coordinates>23.80574,55.06923,0</coordinates>
      </Point>
    </Placemark>
    <Placemark>
      <name>Bernatoniu tv. (Ež.)</name>
      <description></description>
      <Point>
        <coordinates>23.76196,54.98628,0</coordinates>
      </Point>
    </Placemark>
    <Placemark>
      <name>Dobilijos ez. (Ež.)</name>
      <description></description>
      <Point>
        <coordinates>24.08646,54.77572,0</coordinates>
      </Point>
    </Placemark>
    <Placemark>
      <name>Gaizenu tv. (Ež.)</name>
      <description></description>
      <Point>
        <coordinates>23.74086,54.89792,0</coordinates>
      </Point>
    </Placemark>
    <Placemark>
      <name>Garliavos I tv. (Ež.)</name>
      <description></description>
      <Point>
        <coordinates>23.85762,54.84021,0</coordinates>
      </Point>
    </Placemark>
    <Placemark>
      <name>Garliavos II tv. (Ež.)</name>
      <description></description>
      <Point>
        <coordinates>23.86742,54.82810,0</coordinates>
      </Point>
    </Placemark>
    <Placemark>
      <name>Ilgakiemio tv. (Ež.)</name>
      <description></description>
      <Point>
        <coordinates>23.89257,54.78001,0</coordinates>
      </Point>
    </Placemark>
    <Placemark>
      <name>Islauzo tv. (Ež.)</name>
      <description></description>
      <Point>
        <coordinates>23.92242,54.75827,0</coordinates>
      </Point>
    </Placemark>
    <Placemark>
      <name>Islauzo tv. (Ež.)</name>
      <description></description>
      <Point>
        <coordinates>23.94372,54.77671,0</coordinates>
      </Point>
    </Placemark>
    <Placemark>
      <name>Karkliskes tv. (Ež.)</name>
      <description></description>
      <Point>
        <coordinates>23.83952,54.88910,0</coordinates>
      </Point>
    </Placemark>
    <Placemark>
      <name>Karkliskes tv. (Ež.)</name>
      <description></description>
      <Point>
        <coordinates>23.82755,54.88493,0</coordinates>
      </Point>
    </Placemark>
    <Placemark>
      <name>Kauno HE tv. (Ež.)</name>
      <description></description>
      <Point>
        <coordinates>24.18560,54.85526,0</coordinates>
      </Point>
    </Placemark>
    <Placemark>
      <name>Krivenu (Striunos) tv. (Ež.)</name>
      <description></description>
      <Point>
        <coordinates>23.73094,55.10851,0</coordinates>
      </Point>
    </Placemark>
    <Placemark>
      <name>Muniskiu tv. (Ež.)</name>
      <description></description>
      <Point>
        <coordinates>23.82972,54.99929,0</coordinates>
      </Point>
    </Placemark>
    <Placemark>
      <name>Pajiesio tv. (Ež.)</name>
      <description></description>
      <Point>
        <coordinates>23.87282,54.74411,0</coordinates>
      </Point>
    </Placemark>
    <Placemark>
      <name>Paneveziuko tv. (Ež.)</name>
      <description></description>
      <Point>
        <coordinates>23.77038,55.13875,0</coordinates>
      </Point>
    </Placemark>
    <Placemark>
      <name>Pavytes tv. (Ež.)</name>
      <description></description>
      <Point>
        <coordinates>23.92004,54.80565,0</coordinates>
      </Point>
    </Placemark>
    <Placemark>
      <name>Pociunu tv. (Ež.)</name>
      <description></description>
      <Point>
        <coordinates>23.87865,55.10614,0</coordinates>
      </Point>
    </Placemark>
    <Placemark>
      <name>Ramuciu tv. (Ež.)</name>
      <description></description>
      <Point>
        <coordinates>24.11687,54.93565,0</coordinates>
      </Point>
    </Placemark>
    <Placemark>
      <name>Ramuciu tv. (Ež.)</name>
      <description></description>
      <Point>
        <coordinates>24.11238,54.93291,0</coordinates>
      </Point>
    </Placemark>
    <Placemark>
      <name>Smiltynu I tv. (Ež.)</name>
      <description></description>
      <Point>
        <coordinates>23.97240,54.98292,0</coordinates>
      </Point>
    </Placemark>
    <Placemark>
      <name>Smiltynu I tv. (Ež.)</name>
      <description></description>
      <Point>
        <coordinates>23.96976,54.98114,0</coordinates>
      </Point>
    </Placemark>
    <Placemark>
      <name>Smiltynu II tv. (Ež.)</name>
      <description></description>
      <Point>
        <coordinates>23.99085,54.98314,0</coordinates>
      </Point>
    </Placemark>
    <Placemark>
      <name>Smiltynu II tv. (Ež.)</name>
      <description></description>
      <Point>
        <coordinates>23.99099,54.97448,0</coordinates>
      </Point>
    </Placemark>
    <Placemark>
      <name>Antanavo HE tv. (Ež.)</name>
      <description></description>
      <Point>
        <coordinates>23.37241,54.70633,0</coordinates>
      </Point>
    </Placemark>
    <Placemark>
      <name>Antanavo HE tv. (Ež.)</name>
      <description></description>
      <Point>
        <coordinates>23.44334,54.70597,0</coordinates>
      </Point>
    </Placemark>
    <Placemark>
      <name>Gudeliu tv. (Ež.)</name>
      <description></description>
      <Point>
        <coordinates>23.65381,54.67522,0</coordinates>
      </Point>
    </Placemark>
    <Placemark>
      <name>Gulioniskiu tv. (Ež.)</name>
      <description></description>
      <Point>
        <coordinates>23.47088,54.81302,0</coordinates>
      </Point>
    </Placemark>
    <Placemark>
      <name>Jures tv. (Ež.)</name>
      <description></description>
      <Point>
        <coordinates>23.50508,54.78447,0</coordinates>
      </Point>
    </Placemark>
    <Placemark>
      <name>Kazlu tv. (Ež.)</name>
      <description></description>
      <Point>
        <coordinates>23.45462,54.75511,0</coordinates>
      </Point>
    </Placemark>
    <Placemark>
      <name>PilvesVabalksnio tv. (Ež.)</name>
      <description></description>
      <Point>
        <coordinates>23.46664,54.71448,0</coordinates>
      </Point>
    </Placemark>
    <Placemark>
      <name>PilvesVabalksnio tv. (Ež.)</name>
      <description></description>
      <Point>
        <coordinates>23.47452,54.71793,0</coordinates>
      </Point>
    </Placemark>
    <Placemark>
      <name>PilvesVabalksnio tv. (Ež.)</name>
      <description></description>
      <Point>
        <coordinates>23.47119,54.70776,0</coordinates>
      </Point>
    </Placemark>
    <Placemark>
      <name>Plutiskes tv. (Ež.)</name>
      <description></description>
      <Point>
        <coordinates>23.62382,54.72160,0</coordinates>
      </Point>
    </Placemark>
    <Placemark>
      <name>Apusys (Ež.)</name>
      <description></description>
      <Point>
        <coordinates>23.19171,55.61957,0</coordinates>
      </Point>
    </Placemark>
    <Placemark>
      <name>Bridvaisis (Ež.)</name>
      <description></description>
      <Point>
        <coordinates>23.21623,55.58999,0</coordinates>
      </Point>
    </Placemark>
    <Placemark>
      <name>Duksta (Ež.)</name>
      <description></description>
      <Point>
        <coordinates>23.02932,55.76491,0</coordinates>
      </Point>
    </Placemark>
    <Placemark>
      <name>Gaustvinis (Ež.)</name>
      <description></description>
      <Point>
        <coordinates>23.19736,55.64997,0</coordinates>
      </Point>
    </Placemark>
    <Placemark>
      <name>Gilius (Ež.)</name>
      <description></description>
      <Point>
        <coordinates>23.19723,55.61022,0</coordinates>
      </Point>
    </Placemark>
    <Placemark>
      <name>Gludas (Ež.)</name>
      <description></description>
      <Point>
        <coordinates>22.50852,55.77493,0</coordinates>
      </Point>
    </Placemark>
    <Placemark>
      <name>Juodle (Ež.)</name>
      <description></description>
      <Point>
        <coordinates>22.92438,55.81407,0</coordinates>
      </Point>
    </Placemark>
    <Placemark>
      <name>Karklenu ez. (Ež.)</name>
      <description></description>
      <Point>
        <coordinates>22.58913,55.64504,0</coordinates>
      </Point>
    </Placemark>
    <Placemark>
      <name>Kentriu tv. (Ež.)</name>
      <description></description>
      <Point>
        <coordinates>22.80692,55.85131,0</coordinates>
      </Point>
    </Placemark>
    <Placemark>
      <name>Keve (Ež.)</name>
      <description></description>
      <Point>
        <coordinates>22.81813,55.68867,0</coordinates>
      </Point>
    </Placemark>
    <Placemark>
      <name>Kursu tv. (Ež.)</name>
      <description></description>
      <Point>
        <coordinates>22.61201,55.80027,0</coordinates>
      </Point>
    </Placemark>
    <Placemark>
      <name>Kursu tv. (Ež.)</name>
      <description></description>
      <Point>
        <coordinates>22.60311,55.80024,0</coordinates>
      </Point>
    </Placemark>
    <Placemark>
      <name>Labunava (Ež.)</name>
      <description></description>
      <Point>
        <coordinates>22.58163,55.71387,0</coordinates>
      </Point>
    </Placemark>
    <Placemark>
      <name>Lukojus (Ež.)</name>
      <description></description>
      <Point>
        <coordinates>22.95024,55.70250,0</coordinates>
      </Point>
    </Placemark>
    <Placemark>
      <name>Miskinis (Ež.)</name>
      <description></description>
      <Point>
        <coordinates>22.82831,55.69414,0</coordinates>
      </Point>
    </Placemark>
    <Placemark>
      <name>Naudvario tv. (Ež.)</name>
      <description></description>
      <Point>
        <coordinates>22.64709,55.73405,0</coordinates>
      </Point>
    </Placemark>
    <Placemark>
      <name>Pagryzuvio tv. (Ež.)</name>
      <description></description>
      <Point>
        <coordinates>23.15947,55.61464,0</coordinates>
      </Point>
    </Placemark>
    <Placemark>
      <name>Pasiauses I tv. (Ež.)</name>
      <description></description>
      <Point>
        <coordinates>23.13892,55.73359,0</coordinates>
      </Point>
    </Placemark>
    <Placemark>
      <name>Pasiauses II tv. (Ež.)</name>
      <description></description>
      <Point>
        <coordinates>23.15700,55.75125,0</coordinates>
      </Point>
    </Placemark>
    <Placemark>
      <name>Pavezupio tv. (Ež.)</name>
      <description></description>
      <Point>
        <coordinates>22.89143,55.77345,0</coordinates>
      </Point>
    </Placemark>
    <Placemark>
      <name>Pavezupio tv. (Ež.)</name>
      <description></description>
      <Point>
        <coordinates>22.90786,55.76504,0</coordinates>
      </Point>
    </Placemark>
    <Placemark>
      <name>Pavezupio tv. (Ež.)</name>
      <description></description>
      <Point>
        <coordinates>22.92186,55.74355,0</coordinates>
      </Point>
    </Placemark>
    <Placemark>
      <name>Pavezupio tv. (Ež.)</name>
      <description></description>
      <Point>
        <coordinates>22.87908,55.75216,0</coordinates>
      </Point>
    </Placemark>
    <Placemark>
      <name>Pavezupio tv. (Ež.)</name>
      <description></description>
      <Point>
        <coordinates>22.92155,55.75217,0</coordinates>
      </Point>
    </Placemark>
    <Placemark>
      <name>Pavezupio tv. (Ež.)</name>
      <description></description>
      <Point>
        <coordinates>22.92493,55.75891,0</coordinates>
      </Point>
    </Placemark>
    <Placemark>
      <name>Perdale (Ež.)</name>
      <description></description>
      <Point>
        <coordinates>22.93258,55.67400,0</coordinates>
      </Point>
    </Placemark>
    <Placemark>
      <name>Pluscios tv. (Ež.)</name>
      <description></description>
      <Point>
        <coordinates>22.69426,55.56339,0</coordinates>
      </Point>
    </Placemark>
    <Placemark>
      <name>Ramuciu tv. (Ež.)</name>
      <description></description>
      <Point>
        <coordinates>22.81985,55.82772,0</coordinates>
      </Point>
    </Placemark>
    <Placemark>
      <name>Sarkiu tv. (Ež.)</name>
      <description></description>
      <Point>
        <coordinates>22.76746,55.68558,0</coordinates>
      </Point>
    </Placemark>
    <Placemark>
      <name>Saukenu tv. (Ež.)</name>
      <description></description>
      <Point>
        <coordinates>22.88707,55.81587,0</coordinates>
      </Point>
    </Placemark>
    <Placemark>
      <name>Sendvariu tv. (Ež.)</name>
      <description></description>
      <Point>
        <coordinates>22.54160,55.69037,0</coordinates>
      </Point>
    </Placemark>
    <Placemark>
      <name>Sona (Ež.)</name>
      <description></description>
      <Point>
        <coordinates>23.00462,55.76190,0</coordinates>
      </Point>
    </Placemark>
    <Placemark>
      <name>Sustojus (Ež.)</name>
      <description></description>
      <Point>
        <coordinates>22.86728,55.62761,0</coordinates>
      </Point>
    </Placemark>
    <Placemark>
      <name>Tyklis (Ež.)</name>
      <description></description>
      <Point>
        <coordinates>22.59002,55.75596,0</coordinates>
      </Point>
    </Placemark>
    <Placemark>
      <name>Uzvencio tv. (Ež.)</name>
      <description></description>
      <Point>
        <coordinates>22.63624,55.78772,0</coordinates>
      </Point>
    </Placemark>
    <Placemark>
      <name>Vainagiu ez. (Ež.)</name>
      <description></description>
      <Point>
        <coordinates>22.99116,55.79906,0</coordinates>
      </Point>
    </Placemark>
    <Placemark>
      <name>Vejines tv. (Ež.)</name>
      <description></description>
      <Point>
        <coordinates>22.66782,55.60069,0</coordinates>
      </Point>
    </Placemark>
    <Placemark>
      <name>Veniu ez. (Ež.)</name>
      <description></description>
      <Point>
        <coordinates>22.53225,55.74572,0</coordinates>
      </Point>
    </Placemark>
    <Placemark>
      <name>Vezezeris (Ež.)</name>
      <description></description>
      <Point>
        <coordinates>22.97251,55.75784,0</coordinates>
      </Point>
    </Placemark>
    <Placemark>
      <name>Zerbuva (Ež.)</name>
      <description></description>
      <Point>
        <coordinates>23.24087,55.63999,0</coordinates>
      </Point>
    </Placemark>
    <Placemark>
      <name>Ziaune (Ež.)</name>
      <description></description>
      <Point>
        <coordinates>22.73132,55.63765,0</coordinates>
      </Point>
    </Placemark>
    <Placemark>
      <name>Gargzdu karjeras (Ež.)</name>
      <description></description>
      <Point>
        <coordinates>21.37048,55.68779,0</coordinates>
      </Point>
    </Placemark>
    <Placemark>
      <name>Gargzdu karjeras (Ež.)</name>
      <description></description>
      <Point>
        <coordinates>21.37228,55.69388,0</coordinates>
      </Point>
    </Placemark>
    <Placemark>
      <name>Kalotes ez. (Ež.)</name>
      <description></description>
      <Point>
        <coordinates>21.10721,55.78592,0</coordinates>
      </Point>
    </Placemark>
    <Placemark>
      <name>Kapstatas (Ež.)</name>
      <description></description>
      <Point>
        <coordinates>21.73296,55.70476,0</coordinates>
      </Point>
    </Placemark>
    <Placemark>
      <name>Laukzemiu tv. (Ež.)</name>
      <description></description>
      <Point>
        <coordinates>21.18334,55.79223,0</coordinates>
      </Point>
    </Placemark>
    <Placemark>
      <name>Vezaiciu tv. (Ež.)</name>
      <description></description>
      <Point>
        <coordinates>21.48941,55.71245,0</coordinates>
      </Point>
    </Placemark>
    <Placemark>
      <name>Juodupenu tv. (Ež.)</name>
      <description></description>
      <Point>
        <coordinates>21.52459,56.09344,0</coordinates>
      </Point>
    </Placemark>
    <Placemark>
      <name>Kasuciu ez. (Ež.)</name>
      <description></description>
      <Point>
        <coordinates>21.30942,56.00317,0</coordinates>
      </Point>
    </Placemark>
    <Placemark>
      <name>Lazdininku tv. (Ež.)</name>
      <description></description>
      <Point>
        <coordinates>21.19023,56.02073,0</coordinates>
      </Point>
    </Placemark>
    <Placemark>
      <name>Lendimu tv. (Ež.)</name>
      <description></description>
      <Point>
        <coordinates>21.24243,56.12190,0</coordinates>
      </Point>
    </Placemark>
    <Placemark>
      <name>Padvariu tv. (Ež.)</name>
      <description></description>
      <Point>
        <coordinates>21.25486,55.92738,0</coordinates>
      </Point>
    </Placemark>
    <Placemark>
      <name>Rudaiciu tv. (Ež.)</name>
      <description></description>
      <Point>
        <coordinates>21.18054,55.94070,0</coordinates>
      </Point>
    </Placemark>
    <Placemark>
      <name>Tuzu I tv. (Ež.)</name>
      <description></description>
      <Point>
        <coordinates>21.68393,56.06032,0</coordinates>
      </Point>
    </Placemark>
    <Placemark>
      <name>Apascios ez. (Ež.)</name>
      <description></description>
      <Point>
        <coordinates>25.31951,55.96994,0</coordinates>
      </Point>
    </Placemark>
    <Placemark>
      <name>Asakinis (Ež.)</name>
      <description></description>
      <Point>
        <coordinates>25.31908,55.95735,0</coordinates>
      </Point>
    </Placemark>
    <Placemark>
      <name>Eserinis (Ež.)</name>
      <description></description>
      <Point>
        <coordinates>25.31575,55.92827,0</coordinates>
      </Point>
    </Placemark>
    <Placemark>
      <name>Izenas (Dauku ez.) (Ež.)</name>
      <description></description>
      <Point>
        <coordinates>25.21218,55.72916,0</coordinates>
      </Point>
    </Placemark>
    <Placemark>
      <name>Kupiskio tv. (Ež.)</name>
      <description></description>
      <Point>
        <coordinates>25.02879,55.91505,0</coordinates>
      </Point>
    </Placemark>
    <Placemark>
      <name>Mirgu (Kupreliskio) ez. (Ež.)</name>
      <description></description>
      <Point>
        <coordinates>24.98528,56.03060,0</coordinates>
      </Point>
    </Placemark>
    <Placemark>
      <name>Mituva (Ež.)</name>
      <description></description>
      <Point>
        <coordinates>25.17845,55.89906,0</coordinates>
      </Point>
    </Placemark>
    <Placemark>
      <name>Notigale (Ež.)</name>
      <description></description>
      <Point>
        <coordinates>25.30505,55.94309,0</coordinates>
      </Point>
    </Placemark>
    <Placemark>
      <name>Puozas (Ež.)</name>
      <description></description>
      <Point>
        <coordinates>25.16267,55.81225,0</coordinates>
      </Point>
    </Placemark>
    <Placemark>
      <name>Akademijos tv. (Ež.)</name>
      <description></description>
      <Point>
        <coordinates>23.84636,55.41012,0</coordinates>
      </Point>
    </Placemark>
    <Placemark>
      <name>Angiriu tv. (Ež.)</name>
      <description></description>
      <Point>
        <coordinates>23.71154,55.29836,0</coordinates>
      </Point>
    </Placemark>
    <Placemark>
      <name>Antezeriu tv. (Ež.)</name>
      <description></description>
      <Point>
        <coordinates>23.61409,55.40748,0</coordinates>
      </Point>
    </Placemark>
    <Placemark>
      <name>Aristavos tv. (Ež.)</name>
      <description></description>
      <Point>
        <coordinates>24.08866,55.27937,0</coordinates>
      </Point>
    </Placemark>
    <Placemark>
      <name>Bajenu tv. (Ež.)</name>
      <description></description>
      <Point>
        <coordinates>23.77005,55.16473,0</coordinates>
      </Point>
    </Placemark>
    <Placemark>
      <name>Jaugeliai (Ež.)</name>
      <description></description>
      <Point>
        <coordinates>23.72934,55.44186,0</coordinates>
      </Point>
    </Placemark>
    <Placemark>
      <name>Jaugeliai (Ež.)</name>
      <description></description>
      <Point>
        <coordinates>23.73693,55.44275,0</coordinates>
      </Point>
    </Placemark>
    <Placemark>
      <name>Jaunakiemio tv. (Ež.)</name>
      <description></description>
      <Point>
        <coordinates>23.76899,55.47543,0</coordinates>
      </Point>
    </Placemark>
    <Placemark>
      <name>Kampu tv. (Ež.)</name>
      <description></description>
      <Point>
        <coordinates>23.80972,55.18638,0</coordinates>
      </Point>
    </Placemark>
    <Placemark>
      <name>Kedainiu tv. (Ež.)</name>
      <description></description>
      <Point>
        <coordinates>23.92532,55.31224,0</coordinates>
      </Point>
    </Placemark>
    <Placemark>
      <name>Kelariskiu tv. (Ež.)</name>
      <description></description>
      <Point>
        <coordinates>23.89300,55.28600,0</coordinates>
      </Point>
    </Placemark>
    <Placemark>
      <name>Labunavos tv. (Ež.)</name>
      <description></description>
      <Point>
        <coordinates>23.93828,55.19047,0</coordinates>
      </Point>
    </Placemark>
    <Placemark>
      <name>Langakiu tv. (Ež.)</name>
      <description></description>
      <Point>
        <coordinates>23.58554,55.17954,0</coordinates>
      </Point>
    </Placemark>
    <Placemark>
      <name>Lioliu tv. (Ež.)</name>
      <description></description>
      <Point>
        <coordinates>24.26147,55.30545,0</coordinates>
      </Point>
    </Placemark>
    <Placemark>
      <name>Lioliu tv. (Ež.)</name>
      <description></description>
      <Point>
        <coordinates>24.26090,55.30111,0</coordinates>
      </Point>
    </Placemark>
    <Placemark>
      <name>Margininku tv. (Ež.)</name>
      <description></description>
      <Point>
        <coordinates>23.87591,55.52119,0</coordinates>
      </Point>
    </Placemark>
    <Placemark>
      <name>Pelednagiu tv. (Ež.)</name>
      <description></description>
      <Point>
        <coordinates>23.95315,55.24161,0</coordinates>
      </Point>
    </Placemark>
    <Placemark>
      <name>Pilenu tv. (Ež.)</name>
      <description></description>
      <Point>
        <coordinates>23.79067,55.47917,0</coordinates>
      </Point>
    </Placemark>
    <Placemark>
      <name>Pilenu tv. (Ež.)</name>
      <description></description>
      <Point>
        <coordinates>23.78435,55.48435,0</coordinates>
      </Point>
    </Placemark>
    <Placemark>
      <name>Rukai (Ež.)</name>
      <description></description>
      <Point>
        <coordinates>23.74062,55.46420,0</coordinates>
      </Point>
    </Placemark>
    <Placemark>
      <name>Silainiu tv. (Ež.)</name>
      <description></description>
      <Point>
        <coordinates>24.10207,55.24275,0</coordinates>
      </Point>
    </Placemark>
    <Placemark>
      <name>Skerdumes tv. (Ež.)</name>
      <description></description>
      <Point>
        <coordinates>23.61534,55.42188,0</coordinates>
      </Point>
    </Placemark>
    <Placemark>
      <name>Vaidatoniu tv. (Ež.)</name>
      <description></description>
      <Point>
        <coordinates>23.90180,55.39145,0</coordinates>
      </Point>
    </Placemark>
    <Placemark>
      <name>Akmeniu ez. (Ež.)</name>
      <description></description>
      <Point>
        <coordinates>23.49211,54.16282,0</coordinates>
      </Point>
    </Placemark>
    <Placemark>
      <name>Ancis (Ež.)</name>
      <description></description>
      <Point>
        <coordinates>23.70034,54.07219,0</coordinates>
      </Point>
    </Placemark>
    <Placemark>
      <name>Aukstakalnis (Ež.)</name>
      <description></description>
      <Point>
        <coordinates>23.45453,54.20847,0</coordinates>
      </Point>
    </Placemark>
    <Placemark>
      <name>Babru ez. (Ež.)</name>
      <description></description>
      <Point>
        <coordinates>23.69695,54.21652,0</coordinates>
      </Point>
    </Placemark>
    <Placemark>
      <name>Baksiu ez. (Ež.)</name>
      <description></description>
      <Point>
        <coordinates>23.60776,54.28564,0</coordinates>
      </Point>
    </Placemark>
    <Placemark>
      <name>Balandis (Ež.)</name>
      <description></description>
      <Point>
        <coordinates>23.51322,54.09569,0</coordinates>
      </Point>
    </Placemark>
    <Placemark>
      <name>Balsis (Ež.)</name>
      <description></description>
      <Point>
        <coordinates>23.66487,54.14200,0</coordinates>
      </Point>
    </Placemark>